Address,Street,Hood,Town,County,Zip,Lat,Lng
"10th St, Pflugerville, TX 78660, USA",10th Street,UnknownHood,Pflugerville,Travis County,78660,30.435629,-97.6315765
"11th St, Pflugerville, TX 78660, USA",11th Street,Settlers Ridge,Pflugerville,Travis County,78660,30.4414919,-97.6308012
"12th St, Pflugerville, TX 78660, USA",12th Street,UnknownHood,Pflugerville,Travis County,78660,30.4425818,-97.6309396
"1st St, Jonestown, TX 78645, USA",1st Street,UnknownHood,Jonestown,Travis County,78645,30.4968183,-97.9227272
"1st St, Lago Vista, TX 78645, USA",1st Street,UnknownHood,Lago Vista,Travis County,78645,30.4742242,-97.9739509
"2nd St, Jonestown, TX 78645, USA",2nd Street,UnknownHood,Jonestown,Travis County,78645,30.4965511,-97.9220563
"3rd St, Jonestown, TX 78645, USA",3rd Street,UnknownHood,Jonestown,Travis County,78645,30.4963687,-97.9213442
"400 Ave, Briarcliff, TX 78669, USA",400 Avenue,UnknownHood,Briarcliff,Travis County,78669,30.4008548,-98.0497448
"4th St, Jonestown, TX 78645, USA",4th Street,UnknownHood,Jonestown,Travis County,78645,30.496016,-97.920726
"5th St, Jonestown, TX 78645, USA",5th Street,UnknownHood,Jonestown,Travis County,78645,30.4958399,-97.9200315
"6th St, Jonestown, TX 78645, USA",6th Street,UnknownHood,Jonestown,Travis County,78645,30.4943279,-97.9199498
"S 6th St, Pflugerville, TX 78660, USA",South 6th Street,UnknownHood,Pflugerville,Travis County,78660,30.438557,-97.6267848
"7th St, Jonestown, TX 78645, USA",7th Street,UnknownHood,Jonestown,Travis County,78645,30.495176,-97.9197576
"7th St, Pflugerville, TX 78660, USA",7th Street,UnknownHood,Pflugerville,Travis County,78660,30.4398661,-97.6268922
"8th St, Pflugerville, TX 78660, USA",8th Street,Pflugerville West,Pflugerville,Travis County,78660,30.4401791,-97.6276255
"9th St, Pflugerville, TX 78660, USA",9th Street,Pflugerville West,Pflugerville,Travis County,78660,30.4402233,-97.6285356
"Abaco Harbour Cove, Pflugerville, TX 78660, USA",Abaco Harbour Cove,Cambridge Heights,Pflugerville,Travis County,78660,30.469696,-97.643456
"Abbate Cir, Austin, TX 78721, USA",Abbate Circle,MLK,Austin,Travis County,78721,30.2726015,-97.6947985
"Abbey Cir, Austin, TX 78727, USA",Abbey Circle,Lamplight Village,Austin,Travis County,78727,30.4193847,-97.6928058
"Abbey Glen Ln, Austin, TX 78753, USA",Abbey Glen Lane,Copperfield,Austin,Travis County,78753,30.3885777,-97.658322
"Abbey Ln, Cedar Park, TX 78613, USA",Abbey Lane,UnknownHood,Cedar Park,Williamson County,78613,30.522677,-97.8553365
"Abbey Rd, Round Rock, TX 78681, USA",Abbey Road,Round Rock West,Round Rock,Williamson County,78681,30.4975633,-97.6920631
"Abbeyglen Castle Dr, Pflugerville, TX 78660, USA",Abbeyglen Castle Drive,UnknownHood,Pflugerville,Travis County,78660,30.478504,-97.6080026
"Abelia Dr, Austin, TX 78727, USA",Abelia Drive,Dorsett Oaks,Austin,Travis County,78727,30.420669,-97.7269066
"Aberdeen Cir, Austin, TX 78745, USA",Aberdeen Circle,South Austin,Austin,Travis County,78745,30.2156944,-97.7796736
"Aberdeen Dr, Austin, TX 78745, USA",Aberdeen Drive,South Austin,Austin,Travis County,78745,30.2156965,-97.7801481
"Aberdeen Dr, Round Rock, TX 78664, USA",Aberdeen Drive,Greenhill,Round Rock,Williamson County,78664,30.5280884,-97.684675
"Aberdeen Way, Austin, TX 78753, USA",Aberdeen Way,UnknownHood,Austin,Travis County,78753,30.3553867,-97.6770728
"Abilene Cove, Austin, TX 78749, USA",Abilene Cove,UnknownHood,Austin,Travis County,78749,30.2141642,-97.8742788
"Abilene Trail, Austin, TX 78749, USA",Abilene Trail,UnknownHood,Austin,Travis County,78749,30.2200517,-97.8684448
"Abingdon Pl, Austin, TX 78723, USA",Abingdon Place,Windsor Park,Austin,Travis County,78723,30.3110532,-97.7040206
"Above Stratford Pl, Austin, TX 78746, USA",Above Stratford Place,Stratford Place,Austin,Travis County,78746,30.2855448,-97.7881918
"Abrahamson Rd, Webberville, TX 78653, USA",Abrahamson Road,UnknownHood,Webberville,Travis County,78653,30.3605973,-97.4693974
"Acacia Bud Dr, Austin, TX 78733, USA",Acacia Bud Drive,Senna Hills,Austin,Travis County,78733,30.3139174,-97.8968026
"Academy Dr, Austin, TX 78704, USA",Academy Drive,Greater South River City,Austin,Travis County,78704,30.2519969,-97.7449865
"Acadian Trail, Austin, TX 78727, USA",Acadian Trail,Milwood,Austin,Travis County,78727,30.4361258,-97.7446952
"Acanthus St, Pflugerville, TX 78660, USA",Acanthus Street,Heatherwilde,Pflugerville,Travis County,78660,30.4581637,-97.6337914
"Acapulco Ct, Lakeway, TX 78734, USA",Acapulco Court,UnknownHood,Lakeway,Travis County,78734,30.377148,-97.975404
"Acapulco Dr, Lakeway, TX 78734, USA",Acapulco Drive,UnknownHood,Lakeway,Travis County,78734,30.378783,-97.972346
"Accomac Dr, Shady Hollow, TX 78748, USA",Accomac Drive,Shady Hollow,UnknownTown,Travis County,78748,30.1615808,-97.8575054
"Ace Pass, Austin, TX 78758, USA",Ace Pass,North Star,Austin,Travis County,78758,30.415533,-97.7034196
"Acers Ln, Austins' Colony, TX 78725, USA",Acers Lane,Austins' Colony,UnknownTown,Travis County,78725,30.2415249,-97.5800029
"Acorn Ct, Cedar Park, TX 78613, USA",Acorn Court,North Buttercup Creek,Cedar Park,Williamson County,78613,30.5022543,-97.8328333
"Acorn Cove, Austin, TX 78744, USA",Acorn Cove,Southeast Austin,Austin,Travis County,78744,30.1938359,-97.7395632
"Acorn Grove Ct, Austin, TX 78744, USA",Acorn Grove Court,Southeast Austin,Austin,Travis County,78744,30.1929021,-97.7314529
"Acorn Oaks Dr, Austin, TX 78745, USA",Acorn Oaks Drive,South Austin,Austin,Travis County,78745,30.1949976,-97.7955559
"Acropolis Ct, Austin, TX 78759, USA",Acropolis Court,North Austin,Austin,Travis County,78759,30.4126486,-97.7301983
"Acton Dr, Austin, TX 78736, USA",Acton Drive,West Oak Hill,Austin,Travis County,78736,30.2321634,-97.8955019
"Ada Ct, Austin, TX 78744, USA",Ada Court,Yarrabee Bend South,Austin,Travis County,78744,30.1652798,-97.7448516
"Ada Ln, Round Rock, TX 78664, USA",Ada Lane,Jester Farms,Round Rock,Williamson County,78664,30.53336,-97.6655567
"Adak Cove, Jollyville, TX 78729, USA",Adak Cove,Rattan Creek,Jollyville,Williamson County,78729,30.4453293,-97.7571677
"Adalee Ave, Austin, TX 78723, USA",Adalee Avenue,UnknownHood,Austin,Travis County,78723,30.3088787,-97.6771268
"Adam L Chapa Sr St, Austin, TX 78702, USA",Adam L Chapa Sr Street,Holly,Austin,Travis County,78702,30.2576757,-97.7232322
"Adams Ave, Austin, TX 78756, USA",Adams Avenue,Brentwood,Austin,Travis County,78756,30.3314746,-97.7389988
"Adams Cove, Lago Vista, TX 78645, USA",Adams Cove,Highland Lake Estates,Lago Vista,Travis County,78645,30.4342338,-97.9931577
"Addison Ave, Austin, TX 78757, USA",Addison Avenue,UnknownHood,Austin,Travis County,78757,30.3450101,-97.7409977
"Adel Cove, Austin, TX 78749, USA",Adel Cove,Oak Hill,Austin,Travis County,78749,30.225674,-97.8379603
"Adelanto Ct, Lake Pointe, TX 78738, USA",Adelanto Court,Lake Pointe,UnknownTown,Travis County,78738,30.3100091,-97.9280835
"Adelen Ln, Round Rock, TX 78664, USA",Adelen Lane,Bradford Park,Round Rock,Williamson County,78664,30.4936425,-97.621567
"Adelfa Dr, Morningside Meadows, TX 78664, USA",Adelfa Drive,Morningside Meadows,UnknownTown,Williamson County,78664,30.4955964,-97.6115335
"Adelphi Cove, Austin, TX 78727, USA",Adelphi Cove,Milwood,Austin,Travis County,78727,30.4234914,-97.7209246
"Adelphi Ln, Austin, TX 78727, USA",Adelphi Lane,UnknownHood,Austin,Travis County,78727,30.4231126,-97.7178144
"Aden Ct, Austin, TX 78739, USA",Aden Court,UnknownHood,Austin,Travis County,78739,30.1862591,-97.8981304
"Aden Ln, Austin, TX 78739, USA",Aden Lane,UnknownHood,Austin,Travis County,78739,30.1858676,-97.898385
"Adina St, Austin, TX 78721, USA",Adina Street,MLK-183,Austin,Travis County,78721,30.2827137,-97.6797494
"Adirondack Cove, Austin, TX 78759, USA",Adirondack Cove,Adirondack,Austin,Travis County,78759,30.3837572,-97.7649486
"Adirondack Trail, Austin, TX 78759, USA",Adirondack Trail,UnknownHood,Austin,Travis County,78759,30.3813016,-97.7605838
"Adler Ave, Austin, TX 78759, USA",Adler Avenue,UnknownHood,Austin,Travis County,78759,30.4174145,-97.7610942
"Adobe Trail, Lago Vista, TX 78645, USA",Adobe Trail,UnknownHood,Lago Vista,Travis County,78645,30.4820828,-97.9709728
"Adobe Trail, Texas 78737, USA",Adobe Trail,UnknownHood,UnknownTown,Travis County,78737,30.2190717,-97.8980473
"Adrian Way, Texas 78645, USA",Adrian Way,UnknownHood,UnknownTown,Travis County,78645,30.4678853,-97.9565149
"Adriane Dr, Austin, TX 78721, USA",Adriane Drive,MLK,Austin,Travis County,78721,30.2829106,-97.6911189
"Adriatico Way, Bella Vista, TX 78613, USA",Adriatico Way,Bella Vista,UnknownTown,Travis County,78613,30.4604672,-97.8474683
"Adventurer, Lakeway, TX 78734, USA",Adventurer,UnknownHood,Lakeway,Travis County,78734,30.3747861,-97.9760982
"Aerie Cove, Austin, TX 78759, USA",Aerie Cove,The Highlands At Oak Forest,Austin,Travis County,78759,30.4165661,-97.7624561
"Affirmed Dr, Berdoll Farms, TX 78617, USA",Affirmed Drive,Berdoll Farms,UnknownTown,Travis County,78617,30.1736131,-97.6111811
"Afton Ln, Austin, TX 78744, USA",Afton Lane,Southeast Austin,Austin,Travis County,78744,30.2043977,-97.7342713
"Aftonshire Way, Austin, TX 78748, USA",Aftonshire Way,South Austin,Austin,Travis County,78748,30.1799141,-97.8367018
"Agarita Cv, Hudson Bend, TX 78734, USA",Agarita Cove,Silent Ridge,Hudson Bend,Travis County,78734,30.4002003,-97.9102144
"Agarita Dr, Texas 78737, USA",Agarita Drive,UnknownHood,UnknownTown,Hays County,78737,30.1333595,-97.9682825
"Agarita Dr, Texas 78645, USA",Agarita Drive,UnknownHood,UnknownTown,Travis County,78645,30.4652175,-97.9788054
"Agarita Rd, Hudson Bend, TX 78734, USA",Agarita Road,UnknownHood,Hudson Bend,Travis County,78734,30.3991093,-97.9109973
"Agate Cove, Austin, TX 78759, USA",Agate Cove,UnknownHood,Austin,Travis County,78759,30.39168,-97.7563052
"Agatha Cir, Austin, TX 78724, USA",Agatha Circle,Meadows At Trinity Crossing,Austin,Travis County,78724,30.2856464,-97.6467866
"Agave Cove, Austin, TX 78750, USA",Agave Cove,Jester Estates,Austin,Travis County,78750,30.3754749,-97.800068
"Aggie Ln, Austin, TX 78757, USA",Aggie Lane,Crestview,Austin,Travis County,78757,30.3479921,-97.7268114
"Agua Caliente Cove, Austin, TX 78744, USA",Agua Caliente Cove,Southeast Austin,Austin,Travis County,78744,30.1921047,-97.7403354
"Agua Frio Dr, Lago Ranchos, TX 78645, USA",Agua Frio Drive,Lago Ranchos,UnknownTown,Travis County,78645,30.4510526,-97.9726105
"Agua Vista, Yacht Harbor, TX 78734, USA",Agua Vista,Yacht Harbor,UnknownTown,Travis County,78734,30.3792341,-97.9540067
"Aguila Cir, Hudson Bend, TX 78734, USA",Aguila Circle,Vista Grande,Hudson Bend,Travis County,78734,30.4015508,-97.9275793
"Ainez Dr, Austin, TX 78744, USA",Ainez Drive,Southeast Austin,Austin,Travis County,78744,30.1878384,-97.7394395
"Ainsworth St, Austin, TX 78745, USA",Ainsworth Street,South Austin,Austin,Travis County,78745,30.2035701,-97.7766412
"Aire Libre Dr, Austin, TX 78726, USA",Aire Libre Drive,Canyon Creek,Austin,Travis County,78726,30.4328493,-97.8321268
"Airline Terrace, Pilot Knob Acres, TX 78719, USA",Airline Terrace,Pilot Knob Acres,UnknownTown,Travis County,78719,30.1618377,-97.6916668
"Airole Way, Austin, TX 78704, USA",Airole Way,Barton Hills,Austin,Travis County,78704,30.2537065,-97.7802429
"Airoso Cove, Austin, TX 78745, USA",Airoso Cove,South Austin,Austin,Travis County,78745,30.2068289,-97.7868594
"Airport Blvd, Austin, TX 78752, USA",Airport Boulevard,UnknownHood,Austin,Travis County,78752,30.2959096,-97.7080269
"Airport Commerce Dr, Austin, TX 78741, USA",Airport Commerce Drive,Montopolis,Austin,Travis County,78741,30.2212686,-97.6905357
"Ajuga Ct, Lakeway, TX 78734, USA",Ajuga Court,UnknownHood,Lakeway,Travis County,78734,30.3721759,-97.9720074
"Akron Cove, Austin, TX 78723, USA",Akron Cove,University Hills,Austin,Travis County,78723,30.3199062,-97.6771222
"Alabama Dr, Austin, TX 78745, USA",Alabama Drive,South Austin,Austin,Travis County,78745,30.1924239,-97.8212723
"Alameda Dr, Austin, TX 78704, USA",Alameda Drive,Greater South River City,Austin,Travis County,78704,30.2448346,-97.74385
"Alamo Cove, Lago Vista, TX 78645, USA",Alamo Cove,Highland Lake Estates,Lago Vista,Travis County,78645,30.4323529,-97.9990921
"Alamosa Dr, Austin, TX 78759, USA",Alamosa Drive,Balcones Woods,Austin,Travis County,78759,30.4077062,-97.7375654
"Alasan Cove, Austin, TX 78730, USA",Alasan Cove,Long Canyon,Austin,Travis County,78730,30.3778884,-97.8206665
"Alata Cove, Austin, TX 78759, USA",Alata Cove,Prominent Point,Austin,Travis County,78759,30.391072,-97.7694994
"Alazan Cir, Hudson Bend, TX 78734, USA",Alazan Circle,UnknownHood,Hudson Bend,Travis County,78734,30.3994889,-97.9301263
"Alazan Cove, Chandler Creek, TX 78664, USA",Alazan Cove,Chandler Creek,UnknownTown,Williamson County,78664,30.5331384,-97.6590105
"Albata Ave, Austin, TX 78757, USA",Albata Avenue,Allandale,Austin,Travis County,78757,30.348978,-97.7396024
"Albert Brown Dr, Garfield, TX 78617, USA",Albert Brown Drive,UnknownHood,Garfield,Travis County,78617,30.1874009,-97.5584681
"Albert Rd, Austin, TX 78745, USA",Albert Road,South Austin,Austin,Travis County,78745,30.1929242,-97.805264
"Albert Voelker Rd, Texas 78621, USA",Albert Voelker Road,UnknownHood,UnknownTown,Travis County,78621,30.3369593,-97.4430396
"Alberta Cove, Austin, TX 78739, USA",Alberta Cove,The Hielscher,Austin,Travis County,78739,30.1842681,-97.901528
"Alberta Dr, Austin, TX 78739, USA",Alberta Drive,The Hielscher,Austin,Travis County,78739,30.1844877,-97.90145
"Alberta Ridge Trail, Austin, TX 78726, USA",Alberta Ridge Trail,The Parke,Austin,Travis County,78726,30.425287,-97.8595686
"Albury Cove, Austin, TX 78758, USA",Albury Cove,Quail Hollow,Austin,Travis County,78758,30.3993685,-97.7023082
"Alcorn Cir, Austin, TX 78748, USA",Alcorn Circle,South Austin,Austin,Travis County,78748,30.1800671,-97.7945064
"Alcott Cove, Austin, TX 78748, USA",Alcott Cove,Tanglewood Forest,Austin,Travis County,78748,30.1755109,-97.8396363
"Alcott Ln, Austin, TX 78748, USA",Alcott Lane,Tanglewood Forest,Austin,Travis County,78748,30.1739475,-97.8375327
"Alcove Ct, Austin, TX 78757, USA",Alcove Court,Brentwood,Austin,Travis County,78757,30.3363869,-97.7333988
"Aldama Dr, Shady Hollow, TX 78739, USA",Aldama Drive,Shady Hollow,UnknownTown,Travis County,78739,30.1710402,-97.8683321
"Aldea Dr, Austin, TX 78745, USA",Aldea Drive,South Austin,Austin,Travis County,78745,30.200557,-97.8119827
"Alden Dr, Austin, TX 78758, USA",Alden Drive,North Austin Civic Association,Austin,Travis County,78758,30.3572088,-97.7078877
"Aldenburgh Ct, Overlook At Lewis Mountain, TX 78737, USA",Aldenburgh Court,Overlook At Lewis Mountain,UnknownTown,Travis County,78737,30.2014002,-97.9219444
"Alder Cove, Austin, TX 78750, USA",Alder Cove,Jester Estates,Austin,Travis County,78750,30.379497,-97.7937636
"Alderminster Ln, Brookfield Estates, TX 78660, USA",Alderminster Lane,Brookfield Estates,UnknownTown,Travis County,78660,30.4165209,-97.6357412
"Alderwood Dr, Austin, TX 78745, USA",Alderwood Drive,Cherry Creek,Austin,Travis County,78745,30.2064341,-97.8178234
"Aldford Cir, Austin, TX 78745, USA",Aldford Circle,South Austin,Austin,Travis County,78745,30.2112123,-97.8139422
"Aldford Dr, Austin, TX 78745, USA",Aldford Drive,South Austin,Austin,Travis County,78745,30.209866,-97.8105537
"Aldridge Dr, Cameron Industrial, TX 78754, USA",Aldridge Drive,Cameron Industrial,UnknownTown,Travis County,78754,30.3463102,-97.6716012
"Aldwyche Dr, Austin, TX 78704, USA",Aldwyche Drive,South Lamar,Austin,Travis County,78704,30.238685,-97.7791631
"Alegre Pass, Austin, TX 78744, USA",Alegre Pass,UnknownHood,Austin,Travis County,78744,30.1814655,-97.7685721
"Alegria Rd, Austin, TX 78757, USA",Alegria Road,Brentwood,Austin,Travis County,78757,30.3348404,-97.7315362
"Alegro Dr, Austin, TX 78759, USA",Alegro Drive,Balcones Woods,Austin,Travis County,78759,30.4027233,-97.7348472
"Aleman Cove, Round Rock, TX 78681, USA",Aleman Cove,Saint Williams Addition,Round Rock,Williamson County,78681,30.4955565,-97.6937582
"Aletha Ln, Austin, TX 78745, USA",Aletha Lane,South Austin,Austin,Travis County,78745,30.1908414,-97.7930022
"Alex Ave, Wells Branch, TX 78728, USA",Alex Avenue,UnknownHood,Wells Branch,Travis County,78728,30.4362987,-97.6801541
"Alexander Ave, Austin, TX 78702, USA",Alexander Avenue,East Austin,Austin,Travis County,78702,30.2806896,-97.7092616
"Alexander Valley Cove, Round Rock, TX 78665, USA",Alexander Valley Cove,UnknownHood,Round Rock,Williamson County,78665,30.4992555,-97.6291876
"Alexandria Dr, Austin, TX 78749, USA",Alexandria Drive,South Austin,Austin,Travis County,78749,30.2023159,-97.845659
"Alexis Cove, Pflugerville, TX 78660, USA",Alexis Cove,Gatlinburg,Pflugerville,Travis County,78660,30.4247112,-97.6121629
"Alexis Cove, Austin, TX 78741, USA",Alexis Cove,East Riverside - Oltorf,Austin,Travis County,78741,30.2300052,-97.7119123
"Alf Ave, Austin, TX 78721, USA",Alf Avenue,MLK-183,Austin,Travis County,78721,30.2674302,-97.6906767
"Alfalfa Dr, Texas 78645, USA",Alfalfa Drive,UnknownHood,UnknownTown,Travis County,78645,30.4575651,-97.9735804
"Alfred St, Austin, TX 78748, USA",Alfred Street,Bauerle Ranch,Austin,Travis County,78748,30.172031,-97.8381449
"Algarita Ave, Austin, TX 78704, USA",Algarita Avenue,Greater South River City,Austin,Travis County,78704,30.2382686,-97.7430238
"Algarita Dr, Stony Point, TX 78617, USA",Algarita Drive,Stony Point,UnknownTown,Bastrop County,78617,30.1328933,-97.5663355
"Algerita Terrace, Onion Creek Meadows, TX 78652, USA",Algerita Terrace,Onion Creek Meadows,UnknownTown,Travis County,78652,30.1181195,-97.8193616
"Algreg St, Pflugerville, TX 78660, USA",Algreg Street,UnknownHood,Pflugerville,Travis County,78660,30.4824437,-97.5834659
"Alguno Rd, Austin, TX 78757, USA",Alguno Road,Brentwood,Austin,Travis County,78757,30.3338328,-97.7335729
"Alhambra Dr, Austin, TX 78759, USA",Alhambra Drive,Balcones Woods,Austin,Travis County,78759,30.4041737,-97.7366135
"Alice Ave, Austin, TX 78617, USA",Alice Avenue,Valle Del Rio,Austin,Travis County,78617,30.2045103,-97.6381023
"Alicia Dr, Estates At Wilbarger Creek, TX 78621, USA",Alicia Drive,Estates At Wilbarger Creek,UnknownTown,Travis County,78621,30.2856844,-97.4492645
"Alimony Cove, Austin, TX 78727, USA",Alimony Cove,North Shields,Austin,Travis County,78727,30.4257519,-97.6937472
"Alleghany Dr, Austin, TX 78741, USA",Alleghany Drive,East Riverside - Oltorf,Austin,Travis County,78741,30.2290454,-97.7405513
"Allegiance Ave, Lago Vista, TX 78645, USA",Allegiance Avenue,Highland Lake Estates,Lago Vista,Travis County,78645,30.4321868,-98.0010201
"Allegro Ln, West Lake Hills, TX 78746, USA",Allegro Lane,Stonehedge Estates,West Lake Hills,Travis County,78746,30.2959926,-97.8183331
"Allegro Lugar St, Austin, TX 78749, USA",Allegro Lugar Street,UnknownHood,Austin,Travis County,78749,30.2183115,-97.8295024
"Allen Rd, Texas 78746, USA",Allen Road,UnknownHood,UnknownTown,Travis County,78746,30.2728896,-97.8141132
"Allen St, Austin, TX 78702, USA",Allen Street,Govalle,Austin,Travis County,78702,30.2555783,-97.7053563
"Allenwood Dr, Hudson Bend, TX 78734, USA",Allenwood Drive,Lakeland Hills Lakeside,Hudson Bend,Travis County,78734,30.4196473,-97.9245221
"Allerton Ave, Austin, TX 78749, USA",Allerton Avenue,Circle C Ranch,Austin,Travis County,78749,30.2137606,-97.8876218
"Allison Cove, Austin, TX 78741, USA",Allison Cove,East Riverside - Oltorf,Austin,Travis County,78741,30.2205288,-97.7239324
"Allison Dr, Austin, TX 78741, USA",Allison Drive,East Riverside - Oltorf,Austin,Travis County,78741,30.2195442,-97.7252249
"Allium Dr, Austin, TX 78733, USA",Allium Drive,Senna Hills,Austin,Travis County,78733,30.3093734,-97.8940447
"Alloway Dr, Briarcliff, TX 78669, USA",Alloway Drive,UnknownHood,Briarcliff,Travis County,78669,30.4093193,-98.0458291
"Allred Dr, Austin, TX 78748, USA",Allred Drive,UnknownHood,Austin,Travis County,78748,30.1726767,-97.8278368
"Allston Ln, West Rim, TX 78746, USA",Allston Lane,West Rim,UnknownTown,Travis County,78746,30.3122536,-97.7859325
"Allwood Dr, Austin, TX 78704, USA",Allwood Drive,Zilker,Austin,Travis County,78704,30.2495659,-97.7736796
"Allwood Path, Austin, TX 78748, USA",Allwood Path,Southland Oaks,Austin,Travis County,78748,30.1572532,-97.856312
"Alley St, Buda, TX 78610, USA",Alley Street,UnknownHood,Buda,Hays County,78610,30.0778868,-97.8423718
"Allyson Ct, Austin, TX 78744, USA",Allyson Court,Southeast Austin,Austin,Travis County,78744,30.1985576,-97.7452287
"Alma Dr, Austin, TX 78753, USA",Alma Drive,Copperfield,Austin,Travis County,78753,30.3814104,-97.6595609
"Almarion Dr, Rollingwood, TX 78746, USA",Almarion Drive,UnknownHood,Rollingwood,Travis County,78746,30.2743178,-97.7828161
"Almarion Way, Rollingwood, TX 78746, USA",Almarion Way,UnknownHood,Rollingwood,Travis County,78746,30.2769321,-97.7818558
"Almond Cove, Austin, TX 78750, USA",Almond Cove,Jester Estates,Austin,Travis County,78750,30.3807684,-97.7897954
"Almondsbury Ln, Austin, TX 78748, USA",Almondsbury Lane,South Austin,Austin,Travis County,78748,30.1844217,-97.7976845
"Alnwick Castle Dr, Pflugerville, TX 78660, USA",Alnwick Castle Drive,UnknownHood,Pflugerville,Travis County,78660,30.4767745,-97.6128051
"Aloe Cove, Austin, TX 78750, USA",Aloe Cove,Jester Point,Austin,Travis County,78750,30.390866,-97.8020447
"Aloe Vera Cove, Austin, TX 78750, USA",Aloe Vera Cove,Village At Anderson Mill,Austin,Williamson County,78750,30.4586764,-97.821595
"Alomar Cove, Texas 78617, USA",Alomar Cove,UnknownHood,UnknownTown,Travis County,78617,30.1701771,-97.6187167
"Alondra Ln, Austin, TX 78724, USA",Alondra Lane,Meadows At Trinity Crossing,Austin,Travis County,78724,30.2887692,-97.6442013
"Aloysia Dr, Shady Hollow, TX 78748, USA",Aloysia Drive,Shady Hollow,UnknownTown,Travis County,78748,30.1649101,-97.8584392
"Alpha Collier Dr, Wells Branch, TX 78728, USA",Alpha Collier Drive,UnknownHood,Wells Branch,Travis County,78728,30.4449093,-97.6797439
"Alpheus Ave, Austin, TX 78759, USA",Alpheus Avenue,North Austin,Austin,Travis County,78759,30.4134184,-97.7298869
"Alpine Cir, Austin, TX 78704, USA",Alpine Circle,Dawson,Austin,Travis County,78704,30.2293735,-97.7625806
"Alpine Dr, Texas 78617, USA",Alpine Drive,UnknownHood,UnknownTown,Travis County,78617,30.1313052,-97.6146442
"Alps Dr, Swiss Alpine Village, TX 78617, USA",Alps Drive,Swiss Alpine Village,UnknownTown,Travis County,78617,30.1322357,-97.6133079
"Alsace Trail, Austin, TX 78724, USA",Alsace Trail,Meadows At Trinity Crossing,Austin,Travis County,78724,30.2907069,-97.6461442
"Alsatia Dr, Estates Of Bauerle Ranch, TX 78748, USA",Alsatia Drive,Estates Of Bauerle Ranch,UnknownTown,Travis County,78748,30.1603921,-97.8474771
"Alta Ct, Austin, TX 78731, USA",Alta Court,Mount Bonnell Terrace,Austin,Travis County,78731,30.3204336,-97.7718508
"Alta Loma Dr, Austin, TX 78749, USA",Alta Loma Drive,South Austin,Austin,Travis County,78749,30.2067908,-97.8549442
"Alta Mesa, Austin, TX 78759, USA",Alta Mesa,Alta Vista P.u.d.,Austin,Travis County,78759,30.377734,-97.7572207
"Alta Monte Dr, Deer Creek Ranch, TX 78613, USA",Alta Monte Drive,Deer Creek Ranch,UnknownTown,Travis County,78613,30.4747284,-97.8495209
"Alta Verde Dr, Austin, TX 78759, USA",Alta Verde Drive,UnknownHood,Austin,Travis County,78759,30.3784858,-97.7575524
"Alta Vista Ave, Austin, TX 78704, USA",Alta Vista Avenue,Greater South River City,Austin,Travis County,78704,30.2435572,-97.7433859
"Alta Vista Dr, Lago Vista, TX 78645, USA",Alta Vista Drive,UnknownHood,Lago Vista,Travis County,78645,30.4621861,-97.9817958
"Althea Ct, Austin, TX 78753, USA",Althea Court,Copperfield,Austin,Travis County,78753,30.3783741,-97.6619655
"Altoga Dr, Texas 78724, USA",Altoga Drive,UnknownHood,UnknownTown,Travis County,78724,30.3240874,-97.6530639
"Altus Cove, Austin, TX 78759, USA",Altus Cove,Adirondack,Austin,Travis County,78759,30.3842923,-97.7628392
"Alum Rock Dr, Texas 78747, USA",Alum Rock Drive,UnknownHood,UnknownTown,Travis County,78747,30.1548119,-97.741083
"Alva Dr, Briarcliff, TX 78669, USA",Alva Drive,UnknownHood,Briarcliff,Travis County,78669,30.4083267,-98.0519738
"Alvarado Pass, Texas 78645, USA",Alvarado Pass,UnknownHood,UnknownTown,Travis County,78645,30.4755743,-97.9396072
"Alverstone Way, Austin, TX 78759, USA",Alverstone Way,UnknownHood,Austin,Travis County,78759,30.3832135,-97.7602399
"Alvin Devane Blvd, Austin, TX 78741, USA",Alvin Devane Boulevard,East Riverside - Oltorf,Austin,Travis County,78741,30.216639,-97.7201833
"Alysheba Dr, Berdoll Farms, TX 78617, USA",Alysheba Drive,Berdoll Farms,UnknownTown,Travis County,78617,30.1713823,-97.611817
"Amalfi Cove, Austin, TX 78759, USA",Amalfi Cove,Walnut Crossing,Austin,Travis County,78759,30.4198877,-97.7134238
"Amanda Cove, Round Rock, TX 78681, USA",Amanda Cove,Westwind,Round Rock,Williamson County,78681,30.4901517,-97.6940928
"Amanda Ellis Ct, Austin, TX 78749, USA",Amanda Ellis Court,Village At Western Oaks,Austin,Travis County,78749,30.219752,-97.8595502
"Amanda Ellis Way, Austin, TX 78749, USA",Amanda Ellis Way,Village At Western Oaks,Austin,Travis County,78749,30.2190575,-97.8603307
"Amandas Way, Creekside Park, TX 78610, USA",Amandas Way,Creekside Park,UnknownTown,Hays County,78610,30.0953078,-97.8451141
"Amaranth Ln, Austin, TX 78754, USA",Amaranth Lane,UnknownHood,Austin,Travis County,78754,30.3448502,-97.6117973
"Amarillo Ave, Texas 78729, USA",Amarillo Avenue,UnknownHood,UnknownTown,Williamson County,78729,30.4444877,-97.7488366
"Amarylis Dr, Pflugerville, TX 78660, USA",Amarylis Drive,Heatherwilde,Pflugerville,Travis County,78660,30.4623252,-97.6284991
"Amasia Cove, Jollyville, TX 78729, USA",Amasia Cove,Rattan Creek,Jollyville,Williamson County,78729,30.4558811,-97.7610275
"Amber Day Dr, Pflugerville, TX 78660, USA",Amber Day Drive,Heatherwilde,Pflugerville,Travis County,78660,30.4645981,-97.6316825
"Amber Oak Cove, Austin, TX 78748, USA",Amber Oak Cove,Elmwood Park,Austin,Travis County,78748,30.1770736,-97.8470483
"Amber Oak Dr, Austin, TX 78748, USA",Amber Oak Drive,Elmwood Park,Austin,Travis County,78748,30.1765523,-97.846419
"Amber Pass, Austin, TX 78745, USA",Amber Pass,South Austin,Austin,Travis County,78745,30.2073551,-97.7952593
"Amber Skyway Cove, Round Rock, TX 78665, USA",Amber Skyway Cove,Round Rock Ranch,Round Rock,Williamson County,78665,30.498214,-97.637587
"Amber St, Austin, TX 78702, USA",Amber Street,Central East Austin,Austin,Travis County,78702,30.2713034,-97.7275277
"Amberly Pl, Austin, TX 78759, USA",Amberly Place,Great Hills,Austin,Travis County,78759,30.4105587,-97.7648673
"Amberwood Cove, Austin, TX 78759, USA",Amberwood Cove,Great Hills,Austin,Travis County,78759,30.3918898,-97.7589595
"Ambleside Dr, Austin, TX 78759, USA",Ambleside Drive,Walnut Crossing,Austin,Travis County,78759,30.4158002,-97.7165498
"Amblewood Way, Austin, TX 78753, USA",Amblewood Way,Windsor Hills,Austin,Travis County,78753,30.369169,-97.6704657
"Ambrose Cove, Pflugerville, TX 78660, USA",Ambrose Cove,Mountain Creek,Pflugerville,Travis County,78660,30.4327708,-97.6341596
"Ambrose Dr, Pflugerville, TX 78660, USA",Ambrose Drive,Mountain Creek,Pflugerville,Travis County,78660,30.4290404,-97.6310658
"Ambush Cove, Lago Vista, TX 78645, USA",Ambush Cove,UnknownHood,Lago Vista,Travis County,78645,30.4791095,-97.9727198
"Amelia Cove, Austin, TX 78750, USA",Amelia Cove,UnknownHood,Austin,Travis County,78750,30.3963425,-97.8025598
"Amelia Dr, Cedar Park, TX 78613, USA",Amelia Drive,North Buttercup Creek,Cedar Park,Williamson County,78613,30.501867,-97.8453736
"Amen Corner Rd, Pflugerville, TX 78660, USA",Amen Corner Road,Fairways Of Blackhawk,Pflugerville,Travis County,78660,30.4727526,-97.5765761
"Ameno Dr, Lakeway, TX 78734, USA",Ameno Drive,UnknownHood,Lakeway,Travis County,78734,30.3390961,-97.9663053
"American Cove, Lago Vista, TX 78645, USA",American Cove,Highland Lake Estates,Lago Vista,Travis County,78645,30.4301441,-98.0222459
"American Dr, Lago Vista, TX 78645, USA",American Drive,Highland Lake Estates,Lago Vista,Travis County,78645,30.4278786,-98.0209322
"American Kestrel Dr, Falconhead, TX 78738, USA",American Kestrel Drive,Falconhead,UnknownTown,Travis County,78738,30.3217541,-97.9649593
"American Robin Path, Pflugerville, TX 78660, USA",American Robin Path,Kuempel Tract Phase 1,Pflugerville,Travis County,78660,30.4484975,-97.6263629
"Ames Ln, Austin, TX 78739, USA",Ames Lane,Circle C Ranch,Austin,Travis County,78739,30.1931192,-97.8903913
"Amesbury Ln, Austin, TX 78752, USA",Amesbury Lane,Highland,Austin,Travis County,78752,30.3415463,-97.7137242
"Amesite Trail, Austin, TX 78726, USA",Amesite Trail,Canyon Creek,Austin,Travis County,78726,30.4323484,-97.8278926
"Amesley Cove, Austin, TX 78727, USA",Amesley Cove,Duval Springs,Austin,Travis County,78727,30.4156758,-97.733126
"Ameswood Dr, Austin, TX 78723, USA",Ameswood Drive,Pecan Springs Springdale,Austin,Travis County,78723,30.301062,-97.6784468
"Ameswood Pl, Round Rock, TX 78664, USA",Ameswood Place,Greenhill,Round Rock,Williamson County,78664,30.527482,-97.6786415
"Amethyest Stone Ln, Willow Run, TX 78728, USA",Amethyest Stone Lane,Willow Run,UnknownTown,Travis County,78728,30.459151,-97.6809051
"Amethyst Trail, Austin, TX 78750, USA",Amethyst Trail,Anderson Mill,Austin,Williamson County,78750,30.4566563,-97.813765
"Ave Des Amis, Vineyard Bay, TX 78734, USA",Avenue Des Amis,Vineyard Bay,UnknownTown,Travis County,78734,30.3835292,-97.9490303
"Ct Des Azelias, Vineyard Bay, TX 78734, USA",Ct Des Azelias,Vineyard Bay,UnknownTown,Travis County,78734,30.3835292,-97.9490303
"Ammunition Dr, Shady Hollow, TX 78748, USA",Ammunition Drive,Shady Hollow,UnknownTown,Travis County,78748,30.1655555,-97.8507297
"Amory Ln, Austin, TX 78742, USA",Amory Lane,Richland Estates,Austin,Travis County,78742,30.2225669,-97.6739296
"Amos Dr, Volente, TX 78641, USA",Amos Drive,Lake Travis,Volente,Travis County,78641,30.4366843,-97.9101138
"Ampezo Trail, Austin, TX 78749, USA",Ampezo Trail,South Austin,Austin,Travis County,78749,30.2008072,-97.8502811
"Amwell Cove, Texas 78733, USA",Amwell Cove,UnknownHood,UnknownTown,Travis County,78733,30.3294751,-97.8827051
"Amy Cir, Austin, TX 78759, USA",Amy Circle,Austin Woods,Austin,Travis County,78759,30.377823,-97.751475
"Amy Francis St, Austins' Colony, TX 78725, USA",Amy Francis Street,Austins' Colony,UnknownTown,Travis County,78725,30.2320431,-97.5909922
"Amy Lynn Ln, Cedar Park, TX 78613, USA",Amy Lynn Lane,UnknownHood,Cedar Park,Williamson County,78613,30.531632,-97.857964
"Anacacho Cove, Round Rock, TX 78664, USA",Anacacho Cove,South Creek,Round Rock,Williamson County,78664,30.5106685,-97.6472745
"Anacacho Dr, Morningside Meadows, TX 78664, USA",Anacacho Drive,Morningside Meadows,UnknownTown,Williamson County,78664,30.4958606,-97.6099105
"Anacapo Cove, Austin, TX 78727, USA",Anacapo Cove,Scofield Farms,Austin,Travis County,78727,30.4298972,-97.6908937
"Anaconda Ln, Riverplace, TX 78730, USA",Anaconda Lane,Riverplace,UnknownTown,Travis County,78730,30.3766975,-97.8503561
"Anahuac Trail, Austin, TX 78747, USA",Anahuac Trail,Parkside At Slaughter Creek,Austin,Travis County,78747,30.1545366,-97.7882818
"Anaqua Dr, Austin, TX 78750, USA",Anaqua Drive,Jester Estates,Austin,Travis County,78750,30.3800564,-97.7983289
"Anarosa Loop, Austin, TX 78727, USA",Anarosa Loop,Scofield Farms,Austin,Travis County,78727,30.4303545,-97.6936493
"Anatole Ct, Austin, TX 78748, USA",Anatole Court,Southland Oaks,Austin,Travis County,78748,30.1579966,-97.8497388
"Anchusa Trail, Austin, TX 78736, USA",Anchusa Trail,West Oak Hill,Austin,Travis County,78736,30.2573308,-97.9083
"Ancona Trail, Brushy Creek, TX 78681, USA",Ancona Trail,Stone Canyon,Brushy Creek,Williamson County,78681,30.5190531,-97.7320496
"Andalusia Dr, Austin, TX 78759, USA",Andalusia Drive,Balcones Woods,Austin,Travis County,78759,30.406574,-97.7389192
"Andenwood Dr, Austin, TX 78726, USA",Andenwood Drive,UnknownHood,Austin,Travis County,78726,30.4408756,-97.8227998
"Anderson Mill Rd, Leander, TX 78641, USA",Anderson Mill Road,UnknownHood,Leander,UnknownCounty,78641,30.4552954,-97.8252664
"Anderson Mill Rd, Austin, TX 78750, USA",Anderson Mill Road,UnknownHood,Austin,UnknownCounty,78750,30.4480487,-97.7929675
"Andes Cove, Austin, TX 78759, USA",Andes Cove,Adirondack,Austin,Travis County,78759,30.3824844,-97.7619442
"Andover Cove, Round Rock, TX 78664, USA",Andover Cove,Chapel Hill North,Round Rock,Williamson County,78664,30.5286934,-97.6748528
"Andover Dr, Round Rock, TX 78664, USA",Andover Drive,UnknownHood,Round Rock,Williamson County,78664,30.5299648,-97.675779
"Andover Pl, Austin, TX 78723, USA",Andover Place,Windsor Park,Austin,Travis County,78723,30.3072298,-97.7000121
"Andrea Ridge Cove, Lake Pointe, TX 78738, USA",Andrea Ridge Cove,Lake Pointe,UnknownTown,Travis County,78738,30.311251,-97.9179285
"Andreas Cove, Austin, TX 78759, USA",Andreas Cove,Adirondack,Austin,Travis County,78759,30.3831072,-97.7625483
"Andres Way, Round Rock, TX 78664, USA",Andres Way,UnknownHood,Round Rock,Williamson County,78664,30.4936117,-97.620647
"Andrew Cove, Cedar Park, TX 78613, USA",Andrew Cove,North Buttercup Creek,Cedar Park,Williamson County,78613,30.4985413,-97.8381682
"Andrew Zilker Rd, Austin, TX 78746, USA",Andrew Zilker Road,UnknownHood,Austin,Travis County,78746,30.2659015,-97.7724537
"Andrews Ln, Austin, TX 78759, USA",Andrews Lane,Adirondack,Austin,Travis County,78759,30.3790106,-97.7594853
"Andromeda Cove, Austin, TX 78727, USA",Andromeda Cove,Milwood,Austin,Travis County,78727,30.4283278,-97.7252522
"Andross Ct, Hutto, TX 78634, USA",Andross Court,UnknownHood,Hutto,Williamson County,78634,30.5223842,-97.5392136
"Andtree Blvd, Walnut Bend, TX 78724, USA",Andtree Boulevard,Walnut Bend,UnknownTown,Travis County,78724,30.322544,-97.6602969
"Anemone Cove, Austin, TX 78759, USA",Anemone Cove,The Arbor At Great Hills,Austin,Travis County,78759,30.3970216,-97.7717912
"Angel Bay Dr, Coves On Lake Travis, TX 78669, USA",Angel Bay Drive,Coves On Lake Travis,UnknownTown,Travis County,78669,30.400095,-98.0085189
"Angel Mountain Dr, Jonestown, TX 78641, USA",Angel Mountain Drive,UnknownHood,Jonestown,Travis County,78641,30.5158299,-97.9135178
"Angel Springs Dr, Jonestown, TX 78641, USA",Angel Springs Drive,UnknownHood,Jonestown,Travis County,78641,30.5218886,-97.9080812
"Angel Valley Dr, Jonestown, TX 78641, USA",Angel Valley Drive,UnknownHood,Jonestown,Travis County,78641,30.5156381,-97.9035583
"Angelfire Ln, Austin, TX 78746, USA",Angelfire Lane,Crested Butte Hillside,Austin,Travis County,78746,30.2634626,-97.7982027
"Angelina St, Austin, TX 78702, USA",Angelina Street,Central East Austin,Austin,Travis County,78702,30.2710569,-97.724761
"Angelwylde Dr, Texas 78733, USA",Angelwylde Drive,UnknownHood,UnknownTown,Travis County,78733,30.3117062,-97.8771512
"Angleton Cove, Austin, TX 78748, USA",Angleton Cove,UnknownHood,Austin,Travis County,78748,30.161134,-97.8161263
"Anglin Ln, Texas 78737, USA",Anglin Lane,UnknownHood,UnknownTown,Hays County,78737,30.1951722,-97.9713324
"Angus Dr, Briarcliff, TX 78669, USA",Angus Drive,UnknownHood,Briarcliff,Travis County,78669,30.408442,-98.0461671
"Angus Rd, Austin, TX 78759, USA",Angus Road,North Austin,Austin,Travis County,78759,30.4150975,-97.7436046
"Angus Trail, Lago Vista, TX 78645, USA",Angus Trail,UnknownHood,Lago Vista,Travis County,78645,30.4828209,-97.9674526
"Anikawi Dr, Westview On Lake Austin, TX 78746, USA",Anikawi Drive,Westview On Lake Austin,UnknownTown,Travis County,78746,30.3232571,-97.7855388
"Anita Dr, Austin, TX 78704, USA",Anita Drive,Zilker,Austin,Travis County,78704,30.2541272,-97.7705758
"Anita Marie Ln, Wells Branch, TX 78728, USA",Anita Marie Lane,UnknownHood,Wells Branch,Travis County,78728,30.4383093,-97.6835057
"Ankara Ct, Riverplace, TX 78730, USA",Ankara Court,Riverplace,UnknownTown,Travis County,78730,30.3760489,-97.8455633
"Ann Arbor Ave, Austin, TX 78704, USA",Ann Arbor Avenue,Zilker,Austin,Travis County,78704,30.2507104,-97.7772481
"Ann Jene Ct, Austin, TX 78744, USA",Ann Jene Court,Southeast Austin,Austin,Travis County,78744,30.1976243,-97.7282031
"Ann Pl, Wells Branch, TX 78728, USA",Ann Place,UnknownHood,Wells Branch,Travis County,78728,30.4275498,-97.6747119
"Ann Showers Dr, Estates At Wilbarger Creek, TX 78621, USA",Ann Showers Drive,Estates At Wilbarger Creek,UnknownTown,Travis County,78621,30.2748473,-97.472375
"Anna Ct, Cedar Park, TX 78613, USA",Anna Court,North Buttercup Creek,Cedar Park,Williamson County,78613,30.4984044,-97.8399264
"Anna Kate Ct, Pflugerville, TX 78660, USA",Anna Kate Court,UnknownHood,Pflugerville,Travis County,78660,30.4708413,-97.5852206
"Anna St, Austin, TX 78748, USA",Anna Street,South Austin,Austin,Travis County,78748,30.1718121,-97.7945931
"Annabelle Dr, Estates At Wilbarger Creek, TX 78621, USA",Annabelle Drive,Estates At Wilbarger Creek,UnknownTown,Travis County,78621,30.2743533,-97.4607462
"Annapolis Cove, Lago Vista, TX 78645, USA",Annapolis Cove,Highland Lake Estates,Lago Vista,Travis County,78645,30.4326077,-97.9972233
"Annette Cove, Austin, TX 78724, USA",Annette Cove,Meadows At Trinity Crossing,Austin,Travis County,78724,30.2853471,-97.6454654
"Annie Oakley Trail, Austin, TX 78753, USA",Annie Oakley Trail,North Lamar,Austin,Travis County,78753,30.3697644,-97.6883545
"Anselm Ct, Austin, TX 78739, USA",Anselm Court,Circle C Ranch,Austin,Travis County,78739,30.1842387,-97.8878519
"Ansonia Trail, Brushy Creek, TX 78681, USA",Ansonia Trail,Cat Hollow,Brushy Creek,Williamson County,78681,30.5059658,-97.7240307
"Antelope Cir, Austin, TX 78745, USA",Antelope Circle,South Austin,Austin,Travis County,78745,30.1997352,-97.7914856
"Antelope Cove, Cedar Park, TX 78613, USA",Antelope Cove,Forest Oaks,Cedar Park,Williamson County,78613,30.5056319,-97.8042103
"Antelope Run, Austin, TX 78748, USA",Antelope Run,Brodie Springs,Austin,Travis County,78748,30.1752184,-97.8505203
"Antero Dr, Austin, TX 78759, USA",Antero Drive,Adirondack,Austin,Travis County,78759,30.3783359,-97.7590138
"Anthony Ct, Cedar Park, TX 78613, USA",Anthony Court,North Buttercup Creek,Cedar Park,Williamson County,78613,30.497365,-97.8430947
"Anthony St, Austin, TX 78702, USA",Anthony Street,Holly,Austin,Travis County,78702,30.2530825,-97.7234652
"Antietam Trail, Shady Hollow, TX 78748, USA",Antietam Trail,Shady Hollow,UnknownTown,Travis County,78748,30.1629513,-97.8575256
"Antigua Dr, Austin, TX 78759, USA",Antigua Drive,Oak Forest,Austin,Travis County,78759,30.4260337,-97.7704542
"Antique Finish Dr, Settler's Meadow, TX 78660, USA",Antique Finish Drive,Settler's Meadow,UnknownTown,Travis County,78660,30.431005,-97.6399492
"Antique Heritage Dr, Settler's Meadow, TX 78660, USA",Antique Heritage Drive,Settler's Meadow,UnknownTown,Travis County,78660,30.4339264,-97.6380571
"Antler Bend Rd, Oak Run Estates, TX 78737, USA",Antler Bend Road,Oak Run Estates,UnknownTown,Travis County,78737,30.2183009,-97.9690997
"Antler Dr, Austin, TX 78741, USA",Antler Drive,East Riverside - Oltorf,Austin,Travis County,78741,30.2367287,-97.7361021
"Antler Ln, Austin, TX 78726, USA",Antler Lane,UnknownHood,Austin,Travis County,78726,30.450249,-97.8225113
"Antoine Cir, Austin, TX 78744, USA",Antoine Circle,Onion Creek Plantations,Austin,Travis County,78744,30.1683609,-97.7413966
"Antoinette Pl, Austin, TX 78727, USA",Antoinette Place,Milwood,Austin,Travis County,78727,30.4211043,-97.7241512
"Aoudad Trail, Austin, TX 78749, USA",Aoudad Trail,Deer Park At Maple Run,Austin,Travis County,78749,30.2054918,-97.8560463
"Apache Cove, Pflugerville, TX 78660, USA",Apache Cove,The Club At Wells Point,Pflugerville,Travis County,78660,30.4395675,-97.6402952
"Apache Creek Cove, Austin, TX 78735, USA",Apache Creek Cove,Oak Hill,Austin,Travis County,78735,30.2478892,-97.8406914
"Apache Forest Dr, Shady Hollow, TX 78739, USA",Apache Forest Drive,Shady Hollow,UnknownTown,Travis County,78739,30.1720321,-97.8595246
"Apache Pass, Austin, TX 78745, USA",Apache Pass,South Austin,Austin,Travis County,78745,30.2286081,-97.7981937
"Apache Pass, Texas 78634, USA",Apache Pass,UnknownHood,UnknownTown,Williamson County,78634,30.485043,-97.5265351
"Apache Plum Ln, Rolling Meadows, TX 78660, USA",Apache Plum Lane,Rolling Meadows,UnknownTown,Travis County,78660,30.4874344,-97.5642905
"Apache Springs Cir, West Oak Hill, TX 78737, USA",Apache Springs Circle,West Oak Hill,UnknownTown,Travis County,78737,30.2243047,-97.8956016
"Apache, Lago Vista, TX 78645, USA",Apache,Highland Lake Estates,Lago Vista,Travis County,78645,30.443878,-97.9946598
"Apollo Dr, Austin, TX 78758, USA",Apollo Drive,North Park Estates,Austin,Travis County,78758,30.3851839,-97.6916493
"Appalachian Dr, Austin, TX 78759, USA",Appalachian Drive,UnknownHood,Austin,Travis County,78759,30.3816413,-97.7602975
"Appaloosa Ct, Texas 78610, USA",Appaloosa Court,UnknownHood,UnknownTown,Travis County,78610,30.0622263,-97.7158963
"Appaloosa Run, Texas 78737, USA",Appaloosa Run,UnknownHood,UnknownTown,Travis County,78737,30.1910101,-97.9371215
"Appaloosa Trail, Lago Vista, TX 78645, USA",Appaloosa Trail,UnknownHood,Lago Vista,Travis County,78645,30.4799136,-97.9723353
"Appennini Way, Bella Vista, TX 78613, USA",Appennini Way,Bella Vista,UnknownTown,Travis County,78613,30.4574878,-97.8498314
"Apperson St, Austin, TX 78617, USA",Apperson Street,UnknownHood,Austin,Travis County,78617,30.1566652,-97.6461765
"Apple Blossom St, Texas 78610, USA",Apple Blossom Street,UnknownHood,UnknownTown,Hays County,78610,30.047447,-97.8298412
"Apple Carrie Cove, Austin, TX 78745, USA",Apple Carrie Cove,South Austin,Austin,Travis County,78745,30.1924308,-97.8272719
"Apple Cross Dr, Pflugerville, TX 78660, USA",Apple Cross Drive,Picadilly Ridge Phase One,Pflugerville,Travis County,78660,30.469178,-97.6375779
"Apple Vista Cir, Shallow Creek, TX 78660, USA",Apple Vista Circle,Shallow Creek,UnknownTown,Travis County,78660,30.4930466,-97.5939468
"Applegreen Ct, The Hills, TX 78738, USA",Applegreen Court,The Hills Of Lakeway,The Hills,Travis County,78738,30.3431673,-97.993311
"Applegreen Ln, The Hills, TX 78738, USA",Applegreen Lane,The Hills Of Lakeway,The Hills,Travis County,78738,30.344188,-97.991891
"Appletree Ln, Austin, TX 78726, USA",Appletree Lane,UnknownHood,Austin,Travis County,78726,30.4394742,-97.8239093
"Applewood Ct, The Hills, TX 78738, USA",Applewood Court,The Hills Of Lakeway,The Hills,Travis County,78738,30.3396309,-97.9912411
"Applewood Dr, Austin, TX 78758, USA",Applewood Drive,Quail Hollow,Austin,Travis County,78758,30.3875992,-97.7020843
"Applewood Dr, Pflugerville, TX 78660, USA",Applewood Drive,UnknownHood,Pflugerville,Travis County,78660,30.4443375,-97.6137019
"Appomattox Dr, Austin, TX 78745, USA",Appomattox Drive,South Austin,Austin,Travis County,78745,30.194891,-97.8169495
"Apricot Glen Dr, Austin, TX 78746, USA",Apricot Glen Drive,Countryside,Austin,Travis County,78746,30.2623246,-97.8034115
"April Dr, Austin, TX 78753, USA",April Drive,UnknownHood,Austin,Travis County,78753,30.3760512,-97.6653831
"Aqua Azul Ct, Aqua Monte, TX 78733, USA",Aqua Azul Court,Aqua Monte,UnknownTown,Travis County,78733,30.3357827,-97.8771882
"Aqua Verde Ct, Aqua Monte, TX 78733, USA",Aqua Verde Court,Aqua Monte,UnknownTown,Travis County,78733,30.3361869,-97.8759826
"Aqua Verde Dr, Austin, TX 78746, USA",Aqua Verde Drive,Aqua Verde,Austin,Travis County,78746,30.3447293,-97.8091422
"Aquaduct Ave, Pflugerville, TX 78660, USA",Aquaduct Avenue,Ridge At Steeds Crossing,Pflugerville,Travis County,78660,30.4985136,-97.574795
"Aqualine Cove, Round Rock, TX 78681, USA",Aqualine Cove,Round Rock West,Round Rock,Williamson County,78681,30.500849,-97.6922942
"Aqualux Cove, Texas 78610, USA",Aqualux Cove,UnknownHood,UnknownTown,Travis County,78610,30.0738315,-97.7186407
"Aquaplex Dr, Texas 78610, USA",Aquaplex Drive,UnknownHood,UnknownTown,Travis County,78610,30.0762314,-97.717051
"Aquifer Cove, Austin, TX 78746, USA",Aquifer Cove,Bee Cave Woods,Austin,Travis County,78746,30.2679075,-97.8046507
"Arabian Trail, Austin, TX 78759, USA",Arabian Trail,UnknownHood,Austin,Travis County,78759,30.4242455,-97.7515185
"Aragon Dr, Austin, TX 78759, USA",Aragon Drive,Balcones Woods,Austin,Travis County,78759,30.4035261,-97.7326891
"Aralia Dr, Austin, TX 78750, USA",Aralia Drive,UnknownHood,Austin,Travis County,78750,30.3951938,-97.7987631
"Aransas Cove, Chandler Creek, TX 78664, USA",Aransas Cove,Chandler Creek,UnknownTown,Williamson County,78664,30.5341088,-97.655168
"Arapahoe Trail, Austin, TX 78745, USA",Arapahoe Trail,South Austin,Austin,Travis County,78745,30.2264738,-97.797771
"Arapaho Trail, Lago Vista, TX 78645, USA",Arapaho Trail,UnknownHood,Lago Vista,Travis County,78645,30.4776209,-97.9726896
"Arapahoe Pass, Austin, TX 78745, USA",Arapahoe Pass,South Austin,Austin,Travis County,78745,30.2266011,-97.8001745
"Arax Cove, Austin, TX 78731, USA",Arax Cove,Vista West,Austin,Travis County,78731,30.3708703,-97.7746326
"Arboleda Cove, Austin, TX 78745, USA",Arboleda Cove,South Austin,Austin,Travis County,78745,30.1966306,-97.81174
"Arboles Cir, Texas 78737, USA",Arboles Circle,UnknownHood,UnknownTown,Hays County,78737,30.137021,-97.9703273
"Arbor Cir, Austin, TX 78745, USA",Arbor Circle,South Austin,Austin,Travis County,78745,30.2107441,-97.7800233
"Arbor Ct, Round Rock, TX 78681, USA",Arbor Court,Behrens Ranch,Round Rock,Williamson County,78681,30.5322861,-97.723459
"Arbor Downs Rd, Austin, TX 78748, USA",Arbor Downs Road,Southland Oaks,Austin,Travis County,78748,30.158467,-97.8507889
"Arbor Dr, Round Rock, TX 78681, USA",Arbor Drive,Behrens Ranch,Round Rock,Williamson County,78681,30.5346394,-97.7268577
"Arbor Glen Way, Austin, TX 78731, USA",Arbor Glen Way,Mesa Forest,Austin,Travis County,78731,30.366837,-97.756235
"Arbor Ln, Austin, TX 78745, USA",Arbor Lane,South Austin,Austin,Travis County,78745,30.2099525,-97.7788214
"Arbor Oaks Cove, Austin, TX 78759, USA",Arbor Oaks Cove,Great Hills,Austin,Travis County,78759,30.3904063,-97.7614273
"Arbor Path, Round Rock, TX 78681, USA",Arbor Path,Behrens Ranch,Round Rock,Williamson County,78681,30.5342463,-97.7262038
"Arbor Ridge Ct, Austin, TX 78744, USA",Arbor Ridge Court,Chateau At Onion Creek,Austin,Travis County,78744,30.1745807,-97.7677715
"Arbor Trail, Creedmoor, TX 78610, USA",Arbor Trail,Hays Country Oaks,Creedmoor,Hays County,78610,30.1184194,-97.9115864
"Arboretum Blvd, Austin, TX 78759, USA",Arboretum Boulevard,UnknownHood,Austin,Travis County,78759,30.3921365,-97.7479551
"Arbutus Cove, Tierra Madrones, TX 78746, USA",Arbutus Cove,Tierra Madrones,UnknownTown,Travis County,78746,30.3317713,-97.7939549
"Arcadia Ave, Austin, TX 78757, USA",Arcadia Avenue,Brentwood,Austin,Travis County,78757,30.3341903,-97.7280697
"Arcadia Cir, Oak Ranch, TX 78617, USA",Arcadia Circle,Oak Ranch,UnknownTown,Travis County,78617,30.1709805,-97.6236892
"Arcana Cove, Riverplace, TX 78730, USA",Arcana Cove,Riverplace,UnknownTown,Travis County,78730,30.3603332,-97.8598738
"Arch Terrace, Austin, TX 78750, USA",Arch Terrace,UnknownHood,Austin,Travis County,78750,30.4324064,-97.7961
"Archdale Dr, Austin, TX 78748, USA",Archdale Drive,UnknownHood,Austin,Travis County,78748,30.1575531,-97.8134144
"Archer Cove, Lago Vista, TX 78645, USA",Archer Cove,UnknownHood,Lago Vista,Travis County,78645,30.4803722,-97.967353
"Arch Hill Cir, Austin, TX 78750, USA",Arch Hill Circle,Balcones Village,Austin,Travis County,78750,30.443387,-97.7990085
"Arch Hill Dr, Austin, TX 78750, USA",Arch Hill Drive,UnknownHood,Austin,Travis County,78750,30.444125,-97.7981975
"Arctic Ct, North Point, TX 78724, USA",Arctic Court,North Point,UnknownTown,Travis County,78724,30.307726,-97.6410025
"Ardash Ln, Austin, TX 78759, USA",Ardash Lane,Adirondack,Austin,Travis County,78759,30.3783359,-97.7590138
"Ardath St, Austin, TX 78757, USA",Ardath Street,Allandale,Austin,Travis County,78757,30.3483084,-97.7401294
"Arden Ct, Round Rock, TX 78681, USA",Arden Court,The Oaklands,Round Rock,Williamson County,78681,30.5144008,-97.7031421
"Arden Dr, Austin, TX 78745, USA",Arden Drive,South Austin,Austin,Travis County,78745,30.2195471,-97.7819539
"Ardenwood Rd, Austin, TX 78722, USA",Ardenwood Road,Cherrywood,Austin,Travis County,78722,30.299071,-97.7147
"Ardisia Dr, Pflugerville, TX 78660, USA",Ardisia Drive,Heatherwilde,Pflugerville,Travis County,78660,30.460265,-97.6367079
"Ardmore Cir, Austin, TX 78744, USA",Ardmore Circle,Chateau At Onion Creek,Austin,Travis County,78744,30.172311,-97.7667633
"Arena Path, Lago Vista, TX 78645, USA",Arena Path,UnknownHood,Lago Vista,Travis County,78645,30.48243,-97.9705334
"Argentia Rd, Austin, TX 78757, USA",Argentia Road,Allandale,Austin,Travis County,78757,30.3467901,-97.7478755
"Argonne Forest Cove, Austin, TX 78759, USA",Argonne Forest Cove,Oak Forest West,Austin,Travis County,78759,30.4282029,-97.7632174
"Argonne Forest Trail, Austin, TX 78759, USA",Argonne Forest Trail,UnknownHood,Austin,Travis County,78759,30.427954,-97.762763
"Argos Ln, Austin, TX 78759, USA",Argos Lane,UnknownHood,Austin,Travis County,78759,30.3802248,-97.7610053
"Argyle Dr, Austin, TX 78749, USA",Argyle Drive,Circle C Ranch,Austin,Travis County,78749,30.2051445,-97.8842335
"Ariella Dr, Cedar Park, TX 78613, USA",Ariella Drive,UnknownHood,Cedar Park,Williamson County,78613,30.5299428,-97.8654438
"Aries Ln, Austin, TX 78724, USA",Aries Lane,Park Place,Austin,Travis County,78724,30.2979487,-97.6446529
"Arikara River Dr, Austin, TX 78748, USA",Arikara River Drive,UnknownHood,Austin,Travis County,78748,30.1550711,-97.8156084
"Arikara St, Buda, TX 78610, USA",Arikara Street,UnknownHood,Buda,Hays County,78610,30.0799824,-97.8358111
"Ariock Cove, Austin, TX 78739, USA",Ariock Cove,The Hielscher,Austin,Travis County,78739,30.1911461,-97.8969489
"Ariock Ln, Austin, TX 78739, USA",Ariock Lane,The Hielscher,Austin,Travis County,78739,30.1910898,-97.8969745
"Aristocrat Dr, Texas 78725, USA",Aristocrat Drive,UnknownHood,UnknownTown,Travis County,78725,30.2637644,-97.6268055
"Arizona Oak Ln, Forest Bluff, TX 78724, USA",Arizona Oak Lane,Forest Bluff,UnknownTown,Travis County,78724,30.2516326,-97.5817018
"Arlington Cove, Lago Vista, TX 78645, USA",Arlington Cove,Highland Lake Estates,Lago Vista,Travis County,78645,30.4324662,-98.0000072
"Arlington Mill Rd, Austin, TX 78754, USA",Arlington Mill Road,UnknownHood,Austin,Travis County,78754,30.3591514,-97.6115622
"Armadillo Cove, Texas 78734, USA",Armadillo Cove,UnknownHood,UnknownTown,Travis County,78734,30.3887591,-97.9633938
"Armadillo Rd, Austin, TX 78745, USA",Armadillo Road,South Austin,Austin,Travis County,78745,30.2015887,-97.7953082
"Armadillo Trce, Texas 78610, USA",Armadillo Trce,UnknownHood,UnknownTown,Hays County,78610,30.0931044,-97.8864296
"Armaga Cove, Austin, TX 78727, USA",Armaga Cove,Scofield Farms,Austin,Travis County,78727,30.4277548,-97.6933553
"Armaga Springs Rd, Austin, TX 78727, USA",Armaga Springs Road,UnknownHood,Austin,Travis County,78727,30.4267288,-97.6948996
"Armstrong Ave, Kennedy Ridge Estates, TX 78724, USA",Armstrong Avenue,Kennedy Ridge Estates,UnknownTown,Travis County,78724,30.2529723,-97.5743808
"Armstrong Ave, Texas 78653, USA",Armstrong Avenue,UnknownHood,UnknownTown,Travis County,78653,30.347821,-97.5252355
"Armstrong Cove, Texas 78610, USA",Armstrong Cove,UnknownHood,UnknownTown,Hays County,78610,30.078081,-97.9147379
"Arnhamn Ln, Texas 78653, USA",Arnhamn Lane,UnknownHood,UnknownTown,Travis County,78653,30.3815872,-97.5204393
"Arnie Ln, Round Rock, TX 78664, USA",Arnie Lane,Forest Creek,Round Rock,Williamson County,78664,30.51441,-97.6026408
"Arnold Dr, Austin, TX 78723, USA",Arnold Drive,UnknownHood,Austin,Travis County,78723,30.3098232,-97.673771
"Arnold Ln, San Leanna, TX 78748, USA",Arnold Lane,UnknownHood,San Leanna,Travis County,78748,30.1422777,-97.822625
"Arnulfo Alonso Wy, Austin, TX 78746, USA",Arnulfo Alonso Way,UnknownHood,Austin,Travis County,78746,30.2717532,-97.7786486
"Arona Cove, Riverplace, TX 78730, USA",Arona Cove,Riverplace,UnknownTown,Travis County,78730,30.3760862,-97.8474398
"Arpdale St, Austin, TX 78704, USA",Arpdale Street,UnknownHood,Austin,Travis County,78704,30.249204,-97.7794674
"Terrell St, Volente, TX 78641, USA",Terrell Street,Village At Volente,Volente,Travis County,78641,30.4497066,-97.9171518
"Arronimink Cir, Lost Creek, TX 78746, USA",Arronimink Circle,The Hills Of Lost Creek,Lost Creek,Travis County,78746,30.2837149,-97.8306754
"Arrow Dr, Austin, TX 78749, USA",Arrow Drive,South Austin,Austin,Travis County,78749,30.2028181,-97.8439579
"Arrow Point Dr, Cedar Park, TX 78613, USA",Arrow Point Drive,UnknownHood,Cedar Park,Williamson County,78613,30.5304861,-97.8011538
"Arroweye Trail, Texas 78733, USA",Arroweye Trail,UnknownHood,UnknownTown,Travis County,78733,30.3398953,-97.8794632
"Arrowhead Cir, Brushy Creek, TX 78681, USA",Arrowhead Circle,UnknownHood,Brushy Creek,Williamson County,78681,30.5292745,-97.7300919
"Arrowhead Dr, Lago Vista, TX 78645, USA",Arrowhead Drive,Highland Lake Estates,Lago Vista,Travis County,78645,30.4493065,-97.9967714
"Arrowhead Dr, Austin, TX 78731, USA",Arrowhead Drive,Highland Park West,Austin,Travis County,78731,30.3387796,-97.7625653
"Arrowhead Dr, Texas 78641, USA",Arrowhead Drive,UnknownHood,UnknownTown,Travis County,78641,30.4304603,-97.8988628
"Arrowhead Point, Lago Vista, TX 78645, USA",Arrowhead Point,Highland Lake Estates,Lago Vista,Travis County,78645,30.4471452,-98.0090685
"Arrowmound Pass, Austin, TX 78617, USA",Arrowmound Pass,UnknownHood,Austin,Travis County,78617,30.1542951,-97.6500678
"Arrowood Pl, Round Rock, TX 78665, USA",Arrowood Place,Sonoma,Round Rock,Williamson County,78665,30.5108006,-97.631116
"Arrowpoint Cove, Austin, TX 78759, USA",Arrowpoint Cove,UnknownHood,Austin,Travis County,78759,30.4179757,-97.7678213
"Arrowwood Dr, Austin, TX 78727, USA",Arrowwood Drive,North Austin,Austin,Travis County,78727,30.4193825,-97.727184
"Arroyo Ave, Lago Vista, TX 78645, USA",Arroyo Avenue,UnknownHood,Lago Vista,Travis County,78645,30.4777147,-97.971164
"Arroyo Blanco Cove, Austin, TX 78748, USA",Arroyo Blanco Cove,Southland Oaks,Austin,Travis County,78748,30.1551372,-97.8515679
"Arroyo Blanco Dr, Texas 78748, USA",Arroyo Blanco Drive,UnknownHood,UnknownTown,Travis County,78748,30.1579029,-97.8486024
"Arroyo Claro, Lakeway, TX 78734, USA",Arroyo Claro,Arbolago,Lakeway,Travis County,78734,30.3758887,-97.9551548
"Arroyo Doble Dr, Texas 78652, USA",Arroyo Doble Drive,UnknownHood,UnknownTown,Travis County,78652,30.12428,-97.8251752
"Arroyo Rd, Hudson Bend, TX 78734, USA",Arroyo Road,Travis Landing,Hudson Bend,Travis County,78734,30.4162435,-97.9195119
"Arroyo Seco, Austin, TX 78757, USA",Arroyo Seco,UnknownHood,Austin,Travis County,78757,30.3371108,-97.7321902
"Arroyo Trail, Lago Vista, TX 78645, USA",Arroyo Trail,UnknownHood,Lago Vista,Travis County,78645,30.483479,-97.9759919
"Arroyo Vista Dr, Texas 78652, USA",Arroyo Vista Drive,UnknownHood,UnknownTown,Travis County,78652,30.1280041,-97.8265105
"Arterial 8, Austin, TX 78750, USA",Arterial 8,UnknownHood,Austin,Travis County,78750,30.396812,-97.8020246
"Artesian Cir, Austin, TX 78758, USA",Artesian Circle,North Austin Civic Association,Austin,Travis County,78758,30.3592047,-97.7114192
"Arthur Ln, Austin, TX 78704, USA",Arthur Lane,Barton Hills,Austin,Travis County,78704,30.2539617,-97.7783874
"Arthur Stiles Rd, Austin, TX 78721, USA",Arthur Stiles Road,Johnston Terrace,Austin,Travis County,78721,30.2593625,-97.6792438
"Arusha St, Pflugerville, TX 78664, USA",Arusha Street,Springbrook,Pflugerville,Travis County,78664,30.469615,-97.6481894
"Arvin Dr, Lake Pointe, TX 78738, USA",Arvin Drive,Lake Pointe,UnknownTown,Travis County,78738,30.3093701,-97.930163
"Asa Cir, Austin, TX 78744, USA",Asa Circle,Yarrabee Bend South,Austin,Travis County,78744,30.1662811,-97.7446078
"Asa Dr, Austin, TX 78744, USA",Asa Drive,UnknownHood,Austin,Travis County,78744,30.1662576,-97.7430354
"Asbury Dr, Austin, TX 78724, USA",Asbury Drive,UnknownHood,Austin,Travis County,78724,30.3028291,-97.6395105
"Ascent Cove, Pflugerville, TX 78660, USA",Ascent Cove,North Park,Pflugerville,Travis County,78660,30.4574174,-97.6549967
"Ascot Cove, Austin, TX 78746, USA",Ascot Cove,Davenport Ranch,Austin,Travis County,78746,30.3388554,-97.8004222
"Ascot Ln, Cedar Park, TX 78613, USA",Ascot Lane,UnknownHood,Cedar Park,Williamson County,78613,30.5271228,-97.8462689
"Ascot Way, Texas 78617, USA",Ascot Way,UnknownHood,UnknownTown,Travis County,78617,30.1802831,-97.6441045
"Ash Cove, Austin, TX 78753, USA",Ash Cove,Walnut Ridge,Austin,Travis County,78753,30.3744474,-97.6691083
"Ash Dr, Mountain City, TX 78610, USA",Ash Drive,UnknownHood,Mountain City,Hays County,78610,30.0368274,-97.8956518
"Ashbaugh St, Cedar Park, TX 78613, USA",Ashbaugh Street,UnknownHood,Cedar Park,Williamson County,78613,30.5259479,-97.8644894
"Ashberry Dr, Austin, TX 78723, USA",Ashberry Drive,Windsor Park,Austin,Travis County,78723,30.3185437,-97.6921758
"Ashbrook Pl, The Hills, TX 78738, USA",Ashbrook Place,The Hills Of Lakeway,The Hills,Travis County,78738,30.3415941,-97.9955655
"Ashby Ave, Austin, TX 78704, USA",Ashby Avenue,Zilker,Austin,Travis County,78704,30.256105,-97.7706568
"Ashcroft Ct, Austin, TX 78749, USA",Ashcroft Court,Beckett Meadows,Austin,Travis County,78749,30.2187812,-97.8572188
"Ashdale Dr, Austin, TX 78757, USA",Ashdale Drive,UnknownHood,Austin,Travis County,78757,30.3603267,-97.7337095
"Asherton Cove, Austin, TX 78750, USA",Asherton Cove,Jester Point,Austin,Travis County,78750,30.3957702,-97.8007382
"Asheville Pl, Austin, TX 78749, USA",Asheville Place,Village At Western Oaks,Austin,Travis County,78749,30.2037991,-97.8716226
"Ashland Cir, Austin, TX 78723, USA",Ashland Circle,University Hills,Austin,Travis County,78723,30.3077636,-97.6659571
"Ashland Dr, Austin, TX 78723, USA",Ashland Drive,University Hills,Austin,Travis County,78723,30.3081851,-97.6648111
"Ashleaf Cove, Austin, TX 78759, USA",Ashleaf Cove,Great Hills,Austin,Travis County,78759,30.4179441,-97.7773275
"Ashley Way, Austin, TX 78744, USA",Ashley Way,UnknownHood,Austin,Travis County,78744,30.1749321,-97.7630157
"Ashprington Cove, Austin, TX 78754, USA",Ashprington Cove,Harris Branch,Austin,Travis County,78754,30.3509156,-97.6131194
"Ashprington Ln, Austin, TX 78754, USA",Ashprington Lane,Harris Branch,Austin,Travis County,78754,30.3509156,-97.6131194
"Ashton Cove, Austin, TX 78750, USA",Ashton Cove,Spicewood Estates,Austin,Travis County,78750,30.4311218,-97.7998729
"Ashton Ridge, Austin, TX 78750, USA",Ashton Ridge,UnknownHood,Austin,Travis County,78750,30.4301621,-97.799274
"Ashwood Ct, Round Rock, TX 78664, USA",Ashwood Court,Greenslopes At Lake Creek,Round Rock,Williamson County,78664,30.5012063,-97.6630351
"Ashwood Rd, Austin, TX 78722, USA",Ashwood Road,Cherrywood,Austin,Travis County,78722,30.2939222,-97.7146491
"Ashworth Dr, Texas 78746, USA",Ashworth Drive,UnknownHood,UnknownTown,Travis County,78746,30.2798144,-97.784922
"Asmara Ct, Austin, TX 78750, USA",Asmara Court,Canyon Ridge,Austin,Travis County,78750,30.3886846,-97.8036335
"Asmara Dr, Austin, TX 78750, USA",Asmara Drive,UnknownHood,Austin,Travis County,78750,30.3899048,-97.8040454
"Aspen Creek Pkwy, Austin, TX 78749, USA",Aspen Creek Parkway,UnknownHood,Austin,Travis County,78749,30.1808336,-97.8552133
"Aspen Dr, Texas 78733, USA",Aspen Drive,UnknownHood,UnknownTown,Travis County,78733,30.3346527,-97.8696257
"Aspen St, Austin, TX 78758, USA",Aspen Street,North Austin Civic Association,Austin,Travis County,78758,30.3731232,-97.6988381
"Aspendale Cove, Austin, TX 78727, USA",Aspendale Cove,Milwood,Austin,Travis County,78727,30.4125493,-97.7225035
"Aster Way, Chandler Creek, TX 78665, USA",Aster Way,Chandler Creek,UnknownTown,Williamson County,78665,30.5295097,-97.6491037
"Astor Pl, Austin, TX 78721, USA",Astor Place,MLK,Austin,Travis County,78721,30.2835043,-97.6877263
"Astoria Dr, Bee Cave, TX 78738, USA",Astoria Drive,The Uplands,Bee Cave,Travis County,78738,30.3040775,-97.9228366
"Astro View Dr, Austin, TX 78724, USA",Astro View Drive,Park Place,Austin,Travis County,78724,30.2972049,-97.6433352
"Atascosa Dr, Austin, TX 78744, USA",Atascosa Drive,Southeast Austin,Austin,Travis County,78744,30.1928643,-97.74119
"Athletic Dr, Austin, TX 78752, USA",Athletic Drive,St. John/Coronado Hills,Austin,Travis County,78752,30.3219223,-97.6919825
"Atkinson Rd, Austin, TX 78752, USA",Atkinson Road,St. Johns,Austin,Travis County,78752,30.326601,-97.6991418
"Atlanta St, Austin, TX 78703, USA",Atlanta Street,Westfield,Austin,Travis County,78703,30.2772715,-97.7704765
"Atlantic, Lakeway, TX 78734, USA",Atlantic,UnknownHood,Lakeway,Travis County,78734,30.3691935,-97.9935185
"Atlantis Dr, Texas 78725, USA",Atlantis Drive,UnknownHood,UnknownTown,Travis County,78725,30.2642205,-97.6289533
"Atlas Cove, Riverplace, TX 78730, USA",Atlas Cove,Riverplace,UnknownTown,Travis County,78730,30.3618598,-97.8597947
"Attar Cove, Austin, TX 78759, USA",Attar Cove,Balcones Oaks,Austin,Travis County,78759,30.4290873,-97.766915
"Attayac St, Austin, TX 78702, USA",Attayac Street,East Austin,Austin,Travis County,78702,30.2622368,-97.7303524
"Atterbury Ln, Austin, TX 78753, USA",Atterbury Lane,Copperfield,Austin,Travis County,78753,30.3861536,-97.6570224
"Atwater Cove, Seven Oaks, TX 78733, USA",Atwater Cove,Seven Oaks,UnknownTown,Travis County,78733,30.3207506,-97.8636401
"Atwood St, Austin, TX 78741, USA",Atwood Street,Montopolis,Austin,Travis County,78741,30.2393936,-97.6969133
"Auburn Dr, Austin, TX 78723, USA",Auburn Drive,Windsor Park,Austin,Travis County,78723,30.3125782,-97.6786768
"Auburndale St, Austin, TX 78723, USA",Auburndale Street,University Hills and Windsor Park,Austin,Travis County,78723,30.3129516,-97.6762376
"Auburnhill St, Austin, TX 78723, USA",Auburnhill Street,University Hills and Windsor Park,Austin,Travis County,78723,30.3136664,-97.6770112
"Auckland Ct, Austin, TX 78749, USA",Auckland Court,Circle C Ranch,Austin,Travis County,78749,30.2120204,-97.8870024
"Auckland Dr, Austin, TX 78749, USA",Auckland Drive,Circle C Ranch,Austin,Travis County,78749,30.2106404,-97.8890797
"Audane Dr, Austin, TX 78727, USA",Audane Drive,Angus Trail,Austin,Travis County,78727,30.4284759,-97.7377971
"Audra St, Cedar Park, TX 78613, USA",Audra Street,UnknownHood,Cedar Park,Williamson County,78613,30.5202644,-97.8436984
"Audrey Ct, Austin, TX 78704, USA",Audrey Court,Galindo,Austin,Travis County,78704,30.2325698,-97.7722037
"Audrey Dr, Austin, TX 78704, USA",Audrey Drive,Galindo,Austin,Travis County,78704,30.2321043,-97.7708141
"Audubon Pl, Austin, TX 78741, USA",Audubon Place,East Riverside - Oltorf,Austin,Travis County,78741,30.2303715,-97.7409287
"Auger Ln, Texas 78669, USA",Auger Lane,UnknownHood,UnknownTown,Travis County,78669,30.3591409,-98.0463198
"August Dr, Austin, TX 78753, USA",August Drive,UnknownHood,Austin,Travis County,78753,30.3756995,-97.6658708
"Augusta Ave, Austin, TX 78703, USA",Augusta Avenue,Clarksville,Austin,Travis County,78703,30.2771138,-97.7647323
"Augusta Cir, Point Venture, TX 78645, USA",Augusta Circle,UnknownHood,Point Venture,Travis County,78645,30.3795101,-98.0027843
"Augusta Ct, Round Rock, TX 78681, USA",Augusta Court,The Plantation,Round Rock,Williamson County,78681,30.5299407,-97.7093654
"Augusta Cove, Point Venture, TX 78645, USA",Augusta Cove,UnknownHood,Point Venture,Travis County,78645,30.3847533,-97.9961502
"Augusta Dr N, Point Venture, TX 78645, USA",Augusta Drive North,UnknownHood,Point Venture,Travis County,78645,30.386695,-97.995622
"Augusta Dr S, Point Venture, TX 78645, USA",Augusta Drive South,UnknownHood,Point Venture,Travis County,78645,30.3839033,-97.9926706
"Augusta National Cove, Lost Creek, TX 78746, USA",Augusta National Cove,UnknownHood,Lost Creek,Travis County,78746,30.2856199,-97.8387352
"Augusta National Dr, Lost Creek, TX 78746, USA",Augusta National Drive,UnknownHood,Lost Creek,Travis County,78746,30.2852245,-97.8391031
"Aurora Cir, Austin, TX 78752, USA",Aurora Circle,Brentwood,Austin,Travis County,78752,30.3305621,-97.7264311
"Aurora Dr, Austin, TX 78756, USA",Aurora Drive,Brentwood,Austin,Travis County,78756,30.3249289,-97.7316954
"Austex Acres Ln, Webberville, TX 78653, USA",Austex Acres Lane,UnknownHood,Webberville,Travis County,78653,30.3475647,-97.6051098
"Austin Blvd, Texas 78645, USA",Austin Boulevard,UnknownHood,UnknownTown,Travis County,78645,30.4282064,-97.9693398
"Austin Center Blvd, Austin, TX 78731, USA",Austin Center Boulevard,The Austin Center,Austin,Travis County,78731,30.3512511,-97.7511935
"Austin Cove, Lago Vista, TX 78645, USA",Austin Cove,Highland Lake Estates,Lago Vista,Travis County,78645,30.4324608,-97.9981592
"Austin Dr, Jonestown, TX 78645, USA",Austin Drive,UnknownHood,Jonestown,Travis County,78645,30.4964216,-97.921113
"Austin Highlands Blvd, Austin, TX 78745, USA",Austin Highlands Boulevard,South Austin,Austin,Travis County,78745,30.2018333,-97.7928025
"Austin Park Ln, Austin, TX 78758, USA",Austin Park Lane,North Austin,Austin,Travis County,78758,30.3876912,-97.6911383
"Austin St, Buda, TX 78610, USA",Austin Street,UnknownHood,Buda,Hays County,78610,30.0817426,-97.8438045
"Austin Woods Dr, Austin, TX 78759, USA",Austin Woods Drive,Austin Woods,Austin,Travis County,78759,30.3780804,-97.7506436
"Austral Cove, Austin, TX 78739, USA",Austral Cove,UnknownHood,Austin,Travis County,78739,30.1946394,-97.8755206
"Austral Loop, Austin, TX 78739, USA",Austral Loop,UnknownHood,Austin,Travis County,78739,30.1929644,-97.8736905
"Autumn Wood Dr, Austin, TX 78748, USA",Autumn Wood Drive,UnknownHood,Austin,Travis County,78748,30.1706588,-97.8351858
"Autumn Fire Cove, Texas 78613, USA",Autumn Fire Cove,UnknownHood,UnknownTown,Williamson County,78613,30.4829375,-97.8411492
"Autumn Mist Rd, Pflugerville, TX 78660, USA",Autumn Mist Road,UnknownHood,Pflugerville,Travis County,78660,30.4576644,-97.646383
"Autumn Oaks Dr, The Hills, TX 78738, USA",Autumn Oaks Drive,The Hills Of Lakeway,The Hills,Travis County,78738,30.3430701,-97.9963516
"Autumn Oaks Pl, The Hills, TX 78738, USA",Autumn Oaks Place,The Hills Of Lakeway,The Hills,Travis County,78738,30.3408363,-97.9943181
"Autumn Ridge Dr, Austin, TX 78759, USA",Autumn Ridge Drive,Oak Forest,Austin,Travis County,78759,30.4223342,-97.7612117
"Autumnleaf Hollow, Austin, TX 78731, USA",Autumnleaf Hollow,Cat Mountain Villas,Austin,Travis County,78731,30.343215,-97.7781355
"Ava Ln, Austin, TX 78724, USA",Ava Lane,Meadows At Trinity Crossing,Austin,Travis County,78724,30.2843508,-97.646337
"Avalon Ave, Austin, TX 78744, USA",Avalon Avenue,Nuckols Crossing,Austin,Travis County,78744,30.1804447,-97.7505127
"Avatar Ln, Austin, TX 78746, USA",Avatar Lane,Tierra Madrones,Austin,Travis County,78746,30.3321135,-97.7994775
"Avebury Cir, Austin, TX 78753, USA",Avebury Circle,Windsor Hills,Austin,Travis County,78753,30.3533727,-97.6767966
"Avena Valley Dr, Pflugerville, TX 78660, USA",Avena Valley Drive,Heatherwilde,Pflugerville,Travis County,78660,30.465618,-97.6322262
"Avenal Dr, Lake Pointe, TX 78738, USA",Avenal Drive,Lake Pointe,UnknownTown,Travis County,78738,30.3097891,-97.9262671
"Avendale Dr, Bee Cave, TX 78738, USA",Avendale Drive,The Uplands,Bee Cave,Travis County,78738,30.3057083,-97.9246686
"Avenida Ann St, Lago Vista, TX 78645, USA",Avenida Ann Street,UnknownHood,Lago Vista,Travis County,78645,30.4614603,-97.9825141
"Avenue A, Austin, TX 78751, USA",Avenue A,UnknownHood,Austin,Travis County,78751,30.3093022,-97.7327442
"Avenue B, Austin, TX 78751, USA",Avenue B,UnknownHood,Austin,Travis County,78751,30.3076599,-97.7326118
"Avenue C, Austin, TX 78752, USA",Avenue C,UnknownHood,Austin,Travis County,78752,30.3123804,-97.7283754
"Avenue D, Austin, TX 78751, USA",Avenue D,UnknownHood,Austin,Travis County,78751,30.311962,-97.727538
"Avenue D, Austin, TX 78752, USA",Avenue D,UnknownHood,Austin,Travis County,78752,30.311962,-97.727538
"Avenue F, Austin, TX 78751, USA",Avenue F,UnknownHood,Austin,Travis County,78751,30.311094,-97.725572
"Avenue F, Austin, TX 78752, USA",Avenue F,UnknownHood,Austin,Travis County,78752,30.311094,-97.725572
"Avenue G, Austin, TX 78751, USA",Avenue G,UnknownHood,Austin,Travis County,78751,30.3117498,-97.723848
"Avenue G, Austin, TX 78752, USA",Avenue G,UnknownHood,Austin,Travis County,78752,30.3189434,-97.7191608
"Avenue H, Austin, TX 78751, USA",Avenue H,UnknownHood,Austin,Travis County,78751,30.3092906,-97.7243107
"Ave I, Austin, TX 78728, USA",Avenue I,Kings Village,Austin,Travis County,78728,30.4328155,-97.6848187
"Ave K, Austin, TX 78728, USA",Avenue K,UnknownHood,Austin,Travis County,78728,30.4320117,-97.6840842
"Avering Ln, Austin, TX 78754, USA",Avering Lane,Harris Branch,Austin,Travis County,78754,30.3450599,-97.6096197
"Avery Elissa Ln, Cedar Park, TX 78613, USA",Avery Elissa Lane,UnknownHood,Cedar Park,Williamson County,78613,30.483056,-97.8371785
"Avery Ranch Blvd, Cedar Park, TX 78613, USA",Avery Ranch Boulevard,UnknownHood,Cedar Park,Williamson County,78613,30.4972514,-97.7780104
"Avery Woods Ln, Round Rock, TX 78681, USA",Avery Woods Lane,UnknownHood,Round Rock,Williamson County,78681,30.5251566,-97.763805
"Avian St, Austin, TX 78748, USA",Avian Street,Bauerle Ranch,Austin,Travis County,78748,30.1682948,-97.8372101
"Aviary Cove, Austin, TX 78744, USA",Aviary Cove,Southeast Austin,Austin,Travis County,78744,30.1844687,-97.7455179
"Avispa Bonita, Bee Cave, TX 78738, USA",Avispa Bonita,Bee Caves West,Bee Cave,Travis County,78738,30.3119593,-97.9791041
"Avispa Way, Bee Cave, TX 78738, USA",Avispa Way,Bee Caves West,Bee Cave,Travis County,78738,30.3114842,-97.9800642
"Avocet Dr, Leisurewoods, TX 78610, USA",Avocet Drive,Leisurewoods,UnknownTown,Hays County,78610,30.1172769,-97.8645658
"Avocet Dr, Austin, TX 78745, USA",Avocet Drive,Cherry Creek,Austin,Travis County,78745,30.1943991,-97.826558
"Avon Pl, Austin, TX 78723, USA",Avon Place,Windsor Park,Austin,Travis County,78723,30.3071112,-97.699032
"Avondale Rd, Austin, TX 78704, USA",Avondale Road,Greater South River City,Austin,Travis County,78704,30.2483532,-97.7401791
"Awalt Dr, Hudson Bend, TX 78734, USA",Awalt Drive,UnknownHood,Hudson Bend,Travis County,78734,30.4171006,-97.9258635
"Axel Ln, Austin, TX 78721, USA",Axel Lane,MLK-183,Austin,Travis County,78721,30.2749751,-97.6757554
"Axell Ln, Texas 78653, USA",Axell Lane,UnknownHood,UnknownTown,Travis County,78653,30.4146319,-97.4918269
"Axis Deer Trail, Texas 78634, USA",Axis Deer Trail,UnknownHood,UnknownTown,Williamson County,78634,30.5335177,-97.5832025
"Axis Dr, Austin, TX 78749, USA",Axis Drive,Deer Park At Maple Run,Austin,Travis County,78749,30.2056462,-97.8573273
"Axis Rd, Texas 78610, USA",Axis Road,UnknownHood,UnknownTown,Hays County,78610,30.0774486,-97.8703774
"Axtellon Ct, Austin, TX 78749, USA",Axtellon Court,Circle C Ranch,Austin,Travis County,78749,30.2111721,-97.889811
"Ayala Dr, Austins' Colony, TX 78725, USA",Ayala Drive,Austins' Colony,UnknownTown,Travis County,78725,30.2366932,-97.5842081
"Aylesbury Ln, Austin, TX 78745, USA",Aylesbury Lane,South Austin,Austin,Travis County,78745,30.1988271,-97.8206636
"Aylford Ct, Austin, TX 78739, USA",Aylford Court,Circle C Ranch,Austin,Travis County,78739,30.1904903,-97.8846031
"Ayres Dr, Austin, TX 78746, USA",Ayres Drive,Davenport Ranch,Austin,Travis County,78746,30.3181107,-97.8169902
"Azalea Blossom Dr, Austin, TX 78748, USA",Azalea Blossom Drive,UnknownHood,Austin,Travis County,78748,30.1748125,-97.8525224
"Azalea Cir, Coves Of Cimmaron, TX 78610, USA",Azalea Circle,Coves Of Cimmaron,UnknownTown,Hays County,78610,30.1113407,-97.8569888
"Azalea Dr, Texas 78613, USA",Azalea Drive,UnknownHood,UnknownTown,Williamson County,78613,30.4807816,-97.8461953
"Azalea Trail, Austin, TX 78759, USA",Azalea Trail,UnknownHood,Austin,Travis County,78759,30.3764513,-97.7421482
"Azie Morton Rd, Austin, TX 78704, USA",Azie Morton Road,UnknownHood,Austin,Travis County,78704,30.2616745,-97.7688509
"Azores Dr, Texas 78660, USA",Azores Drive,UnknownHood,UnknownTown,Travis County,78660,30.4181768,-97.6274021
"Aztec Dr, Austin, TX 78703, USA",Aztec Drive,Tarrytown,Austin,Travis County,78703,30.295414,-97.7608982
"Aztec Fall Cove, Westview On Lake Austin, TX 78746, USA",Aztec Fall Cove,Westview On Lake Austin,UnknownTown,Travis County,78746,30.3206891,-97.7878936
"Aztec Trail, Lago Vista, TX 78645, USA",Aztec Trail,UnknownHood,Lago Vista,Travis County,78645,30.4787945,-97.9715543
"Azure Ave, Lago Vista, TX 78645, USA",Azure Avenue,Highland Lake Estates,Lago Vista,Travis County,78645,30.4251199,-98.03195
"Azzuro Way, Bella Vista, TX 78613, USA",Azzuro Way,Bella Vista,UnknownTown,Travis County,78613,30.458172,-97.8478481
"Babbling Brook Dr, Jacks Pond, TX 78728, USA",Babbling Brook Drive,Jacks Pond,UnknownTown,Travis County,78728,30.4523175,-97.6842217
"Back Bay Ct, Austin, TX 78739, USA",Back Bay Court,Circle C Ranch,Austin,Travis County,78739,30.1810535,-97.8902845
"Back Bay Ln, Austin, TX 78739, USA",Back Bay Lane,UnknownHood,Austin,Travis County,78739,30.18803,-97.8921787
"Back Ct, Austin, TX 78731, USA",Back Court,The Courtyard,Austin,Travis County,78731,30.3560834,-97.7908087
"Back of the Moon St, Hudson Bend, TX 78734, USA",Back of the Moon Street,Travis Landing,Hudson Bend,Travis County,78734,30.4114562,-97.9176697
"Backstroke Dr, Austin, TX 78731, USA",Backstroke Drive,The Courtyard,Austin,Travis County,78731,30.3542959,-97.7923184
"Backtrail Dr, Austin, TX 78731, USA",Backtrail Drive,North Cat Mountain,Austin,Travis County,78731,30.3603053,-97.7832253
"Bacon Cove, Lago Vista, TX 78645, USA",Bacon Cove,Highland Lake Estates,Lago Vista,Travis County,78645,30.4242731,-97.9980501
"Badger Bend, Austin, TX 78749, USA",Badger Bend,Oak Hill,Austin,Travis County,78749,30.2300756,-97.8515117
"Baffin Cove, Chandler Creek, TX 78664, USA",Baffin Cove,Chandler Creek,UnknownTown,Williamson County,78664,30.5330289,-97.6580048
"Bagby Dr, Texas 78724, USA",Bagby Drive,UnknownHood,UnknownTown,Travis County,78724,30.289691,-97.6322136
"Bagdad Rd, Cedar Park, TX 78613, USA",Bagdad Road,UnknownHood,Cedar Park,Williamson County,78613,30.5237512,-97.8426038
"Baggins Cove, Shady Hollow, TX 78739, USA",Baggins Cove,Shady Hollow,UnknownTown,Travis County,78739,30.164979,-97.8684059
"Bahama Rd, Austin Lake Estates, TX 78733, USA",Bahama Road,Austin Lake Estates,UnknownTown,Travis County,78733,30.3459007,-97.8644237
"Bahan Dr, Berdoll Farms, TX 78617, USA",Bahan Drive,Berdoll Farms,UnknownTown,Travis County,78617,30.1741092,-97.6163857
"Bahia Cir, Austin, TX 78741, USA",Bahia Circle,East Riverside - Oltorf,Austin,Travis County,78741,30.221689,-97.7367944
"Bailey Lane, Austin, TX 78705, USA",Bailey Lane,UnknownHood,Austin,Travis County,78705,30.306384,-97.7457098
"Bailey Lane, Austin, TX 78756, USA",Bailey Lane,UnknownHood,Austin,Travis County,78756,30.3074444,-97.7448565
"Bain Rd, Texas 78617, USA",Bain Road,UnknownHood,UnknownTown,Travis County,78617,30.1536368,-97.6618952
"Bainbridge Ln, Austin, TX 78750, USA",Bainbridge Lane,Anderson Mill,Austin,Williamson County,78750,30.4568612,-97.8007517
"Baird Ln, Austin, TX 78704, USA",Baird Lane,Galindo,Austin,Travis County,78704,30.2390182,-97.7685371
"Baja Cove, Austin, TX 78759, USA",Baja Cove,Windridge,Austin,Travis County,78759,30.4215647,-97.7764341
"Baker St, Austin, TX 78721, USA",Baker Street,MLK-183,Austin,Travis County,78721,30.2828572,-97.6790318
"Bakers Ln, Hutto, TX 78634, USA",Bakers Lane,UnknownHood,Hutto,Williamson County,78634,30.5258428,-97.5472095
"Bakers Way, Cedar Park, TX 78613, USA",Bakers Way,UnknownHood,Cedar Park,Williamson County,78613,30.5317839,-97.8551172
"Bal Harbor Rd, Austin, TX 78733, USA",Bal Harbor Road,Austin Lake Estates,Austin,Travis County,78733,30.3523247,-97.8571109
"Balboa Ln, Austin, TX 78727, USA",Balboa Lane,Milwood,Austin,Travis County,78727,30.4160312,-97.7265271
"Balboa Rd, Austin Lake Estates, TX 78733, USA",Balboa Road,Austin Lake Estates,UnknownTown,Travis County,78733,30.3456166,-97.8628219
"Balcones Club Dr, Austin, TX 78750, USA",Balcones Club Drive,Balcones Village,Austin,Travis County,78750,30.4432426,-97.7876693
"Balcones Dr, Austin, TX 78731, USA",Balcones Drive,UnknownHood,Austin,Travis County,78731,30.3325946,-97.7607426
"Balcones Way, Austin, TX 78750, USA",Balcones Way,UnknownHood,Austin,Travis County,78750,30.441187,-97.7987675
"Balcones Woods Cir, Austin, TX 78759, USA",Balcones Woods Circle,Balcones Woods,Austin,Travis County,78759,30.4070914,-97.7428755
"Balcones Woods Cove, Austin, TX 78759, USA",Balcones Woods Cove,Balcones Woods,Austin,Travis County,78759,30.4073789,-97.7426549
"Balcones Woods Dr, Austin, TX 78759, USA",Balcones Woods Drive,North Austin,Austin,Travis County,78759,30.40552,-97.7386715
"Bald Cypress Cove, Deer Creek Ranch, TX 78613, USA",Bald Cypress Cove,Deer Creek Ranch,UnknownTown,Travis County,78613,30.4803193,-97.8501169
"Baldridge Dr, Austin, TX 78748, USA",Baldridge Drive,South Austin,Austin,Travis County,78748,30.1785105,-97.7918356
"Baldwin Dr, Texas 78724, USA",Baldwin Drive,UnknownHood,UnknownTown,Travis County,78724,30.2866672,-97.6320003
"Bales St, Texas 78653, USA",Bales Street,UnknownHood,UnknownTown,Travis County,78653,30.3735145,-97.6225401
"Balfour Falls Ln, Estates Of Bauerle Ranch, TX 78748, USA",Balfour Falls Lane,Estates Of Bauerle Ranch,UnknownTown,Travis County,78748,30.1633965,-97.8489821
"Bali Ln, Texas 78660, USA",Bali Lane,UnknownHood,UnknownTown,Travis County,78660,30.4242437,-97.6313817
"Ballentine Ct, Hutto, TX 78634, USA",Ballentine Court,UnknownHood,Hutto,Williamson County,78634,30.5231039,-97.5420808
"Ballenton Ct, Austin, TX 78739, USA",Ballenton Court,UnknownHood,Austin,Travis County,78739,30.1927731,-97.8801434
"Ballenton Ln, Austin, TX 78739, USA",Ballenton Lane,UnknownHood,Austin,Travis County,78739,30.1926488,-97.8791129
"Ballerstedt Rd, Texas 78621, USA",Ballerstedt Road,UnknownHood,UnknownTown,Travis County,78621,30.3383015,-97.4680371
"Ballimamore Dr, Austin, TX 78717, USA",Ballimamore Drive,Avery Ranch,Austin,Williamson County,78717,30.5004252,-97.7822735
"Ballybunion Pl, Austin, TX 78747, USA",Ballybunion Place,Onion Creek,Austin,Travis County,78747,30.1344884,-97.7787764
"Ballyclarc Dr, Austin, TX 78717, USA",Ballyclarc Drive,Avery Ranch,Austin,Williamson County,78717,30.4996081,-97.7823784
"Balmorhea Ct, Pflugerville, TX 78664, USA",Balmorhea Court,Cambridge Heights,Pflugerville,Travis County,78664,30.4751566,-97.6450086
"Balsam Hollow, Austin, TX 78731, USA",Balsam Hollow,Cat Mountain Villas,Austin,Travis County,78731,30.3459712,-97.7808229
"Balsam Way, Chandler Creek, TX 78665, USA",Balsam Way,Chandler Creek,UnknownTown,Williamson County,78665,30.5280569,-97.6501133
"Baltus Dr, Austin, TX 78758, USA",Baltus Drive,Quail Hollow,Austin,Travis County,78758,30.3859197,-97.7031334
"Baltusrol Dr, Austin, TX 78747, USA",Baltusrol Drive,Onion Creek,Austin,Travis County,78747,30.1432294,-97.7913197
"Bamboo Trail, Cedar Park, TX 78613, USA",Bamboo Trail,North Buttercup Creek,Cedar Park,Williamson County,78613,30.5029049,-97.8364371
"Bamfield Cove, Round Rock, TX 78665, USA",Bamfield Cove,Lake Forest,Round Rock,Williamson County,78665,30.5056247,-97.6190262
"Bamford Dr, Austin, TX 78731, USA",Bamford Drive,UnknownHood,Austin,Travis County,78731,30.3674615,-97.7654877
"Banbridge Trail, Austin, TX 78717, USA",Banbridge Trail,Avery Ranch,Austin,Williamson County,78717,30.4987462,-97.78277
"Banbury Bend, Austin, TX 78745, USA",Banbury Bend,South Austin,Austin,Travis County,78745,30.2236291,-97.7852446
"Bancroft Woods Cove, Austin, TX 78729, USA",Bancroft Woods Cove,Bancroft Woods,Austin,Travis County,78729,30.4425394,-97.7527641
"Bancroft Woods Dr, Austin, TX 78729, USA",Bancroft Woods Drive,Bancroft Woods,Austin,Travis County,78729,30.4426118,-97.7518988
"Banda Ln, Austins' Colony, TX 78725, USA",Banda Lane,Austins' Colony,UnknownTown,Travis County,78725,30.2373973,-97.5900402
"Bandera Cove, Round Rock, TX 78665, USA",Bandera Cove,Sonoma,Round Rock,Williamson County,78665,30.5041652,-97.6254305
"Bandera Creek Trail, Austin, TX 78735, USA",Bandera Creek Trail,Oak Hill,Austin,Travis County,78735,30.2462114,-97.8382366
"Bandera Path, Round Rock, TX 78665, USA",Bandera Path,Sonoma,Round Rock,Williamson County,78665,30.5041048,-97.6256209
"Bandera Rd, Austin, TX 78721, USA",Bandera Road,MLK-183,Austin,Travis County,78721,30.2832475,-97.6821067
"Banditti Dr, Austin, TX 78750, USA",Banditti Drive,Spicewood At Bullcreek,Austin,Travis County,78750,30.4354783,-97.8070749
"Bandstand Ln, Cedar Park, TX 78613, USA",Bandstand Lane,UnknownHood,Cedar Park,Williamson County,78613,30.5194474,-97.8059602
"Bangor Bend, Austin, TX 78758, USA",Bangor Bend,North Austin Civic Association,Austin,Travis County,78758,30.3541156,-97.7110382
"Banister Ln, Austin, TX 78745, USA",Banister Lane,UnknownHood,Austin,Travis County,78745,30.226602,-97.7801679
"Banks Ct, Austin, TX 78739, USA",Banks Court,Circle C Ranch,Austin,Travis County,78739,30.1930514,-97.8787146
"Bankside St, Austin, TX 78748, USA",Bankside Street,Bauerle Ranch,Austin,Travis County,78748,30.1699584,-97.8467675
"Bannock Ln, Austin, TX 78747, USA",Bannock Lane,Springfield At Thaxton Road,Austin,Travis County,78747,30.1596574,-97.7420779
"Bannockburn Dr, Austin, TX 78749, USA",Bannockburn Drive,UnknownHood,Austin,Travis County,78749,30.2139206,-97.8327938
"Banpass Ln, Austin, TX 78736, USA",Banpass Lane,West Oak Hill,Austin,Travis County,78736,30.2363746,-97.8981372
"Banton Rd, Austin, TX 78722, USA",Banton Road,Cherrywood,Austin,Travis County,78722,30.287058,-97.7082591
"Banyan Cv, Cedar Park, TX 78613, USA",Banyan Cove,North Buttercup Creek,Cedar Park,Williamson County,78613,30.5051751,-97.8267769
"Banyon St, Austin, TX 78757, USA",Banyon Street,Crestview,Austin,Travis County,78757,30.3433348,-97.7179333
"Bar Harbor Bend, Brushy Creek, TX 78681, USA",Bar Harbor Bend,Stone Canyon,Brushy Creek,Williamson County,78681,30.521096,-97.7234259
"Bar Harbor Cove, Brushy Creek, TX 78681, USA",Bar Harbor Cove,Stone Canyon,Brushy Creek,Williamson County,78681,30.5213087,-97.723722
"Bar K Clubhouse Ct, Lago Vista, TX 78645, USA",Bar K Clubhouse Court,UnknownHood,Lago Vista,Travis County,78645,30.4676527,-97.996463
"Bar K Ranch Rd, Lago Vista, TX 78645, USA",Bar K Ranch Road,UnknownHood,Lago Vista,Travis County,78645,30.4796772,-97.9824323
"Bar-X Dr, Austin, TX 78727, USA",Bar-X Drive,UnknownHood,Austin,Travis County,78727,30.4237184,-97.7327985
"Barasinga Trail, Austin, TX 78749, USA",Barasinga Trail,Deer Park At Maple Run,Austin,Travis County,78749,30.2057603,-97.8584165
"Barbara St, Austin, TX 78757, USA",Barbara Street,Crestview,Austin,Travis County,78757,30.3517599,-97.7260346
"Barbergale St, Spring Willow Creek, TX 78660, USA",Barbergale Street,Spring Willow Creek,UnknownTown,Travis County,78660,30.4431108,-97.6621277
"Barberry Dr, Texas 78645, USA",Barberry Drive,UnknownHood,UnknownTown,Travis County,78645,30.4658444,-97.9746712
"Barbie Ct, Lakeway, TX 78734, USA",Barbie Court,UnknownHood,Lakeway,Travis County,78734,30.3626291,-97.976874
"Barbrook Cove, Canyon Creek West, TX 78726, USA",Barbrook Cove,Canyon Creek West,UnknownTown,Travis County,78726,30.4375643,-97.8307844
"Barbrook Dr, Texas 78726, USA",Barbrook Drive,UnknownHood,UnknownTown,Travis County,78726,30.4361458,-97.8297394
"Barbuda Dr, Lakeway, TX 78734, USA",Barbuda Drive,Rough Hollow,Lakeway,Travis County,78734,30.3669885,-98.0052417
"Barcelona Cove, Austin, TX 78752, USA",Barcelona Cove,Coronado Hills,Austin,Travis County,78752,30.32996,-97.6855745
"Barcelona Dr, Austin, TX 78752, USA",Barcelona Drive,Coronado Hills,Austin,Travis County,78752,30.3283353,-97.6855858
"Barchetta Dr, Austin, TX 78758, USA",Barchetta Drive,North Austin,Austin,Travis County,78758,30.3922683,-97.6963504
"Barclay Dr, Austin, TX 78746, USA",Barclay Drive,Woods Of Westlake Heights,Austin,Travis County,78746,30.2775978,-97.8242604
"Barefoot Cove, Green Shores On Lake Austin, TX 78730, USA",Barefoot Cove,Green Shores On Lake Austin,UnknownTown,Travis County,78730,30.3434849,-97.8183314
"Barefoot Cove, Round Rock, TX 78665, USA",Barefoot Cove,Sonoma,Round Rock,Williamson County,78665,30.5102227,-97.6285359
"Bargamin Dr, Austin, TX 78736, USA",Bargamin Drive,West Oak Hill,Austin,Travis County,78736,30.2410977,-97.8960193
"Barge St, Austin, TX 78745, USA",Barge Street,South Austin,Austin,Travis County,78745,30.2053476,-97.805374
"Barhill Dr, Austin, TX 78704, USA",Barhill Drive,Barton Hills,Austin,Travis County,78704,30.2537864,-97.7822973
"Barilla Mountain Trail, Pflugerville, TX 78664, USA",Barilla Mountain Trail,UnknownHood,Pflugerville,Travis County,78664,30.4731119,-97.6510469
"Barkbridge Trail, Austin, TX 78744, USA",Barkbridge Trail,Greenslopes,Austin,Travis County,78744,30.1772619,-97.7527977
"Barkdale Ct, Austin, TX 78744, USA",Barkdale Court,Chateau At Onion Creek,Austin,Travis County,78744,30.1731037,-97.7626883
"Barker Hills Dr, Texas 78653, USA",Barker Hills Drive,UnknownHood,UnknownTown,Travis County,78653,30.3219527,-97.5400531
"Barker Hollow Cove, Shady Hollow Estates, TX 78739, USA",Barker Hollow Cove,Shady Hollow Estates,UnknownTown,Travis County,78739,30.1537214,-97.8690245
"Barker Hollow Pass, Texas 78739, USA",Barker Hollow Pass,UnknownHood,UnknownTown,Travis County,78739,30.1526469,-97.8659979
"Barker Ridge Cove, Austin, TX 78759, USA",Barker Ridge Cove,Austin Hills,Austin,Travis County,78759,30.4089106,-97.7567439
"Barker Ridge Dr, Austin, TX 78759, USA",Barker Ridge Drive,Austin Hills,Austin,Travis County,78759,30.4087094,-97.756381
"Barker Vista Cove, Austin, TX 78759, USA",Barker Vista Cove,Austin Hills,Austin,Travis County,78759,30.4078646,-97.7551705
"Barkwood Dr, Austin, TX 78748, USA",Barkwood Drive,South Austin,Austin,Travis County,78748,30.1831086,-97.8287755
"Barletta Rd, Brushy Creek, TX 78681, USA",Barletta Road,Cat Hollow,Brushy Creek,Williamson County,78681,30.5031197,-97.7389329
"Barley Cove, Austin, TX 78750, USA",Barley Cove,Jester Estates,Austin,Travis County,78750,30.3807465,-97.7976304
"Barn Swallow Dr, Austin, TX 78746, USA",Barn Swallow Drive,Woodhaven,Austin,Travis County,78746,30.2686811,-97.8083118
"Barnett Glenn Rd, Texas 78669, USA",Barnett Glenn Road,UnknownHood,UnknownTown,Travis County,78669,30.3664243,-98.0371644
"Barney Dr, Cardinal Hills Estates, TX 78734, USA",Barney Drive,Cardinal Hills Estates,UnknownTown,Travis County,78734,30.3763327,-97.9374443
"Barnhill Dr, Austin, TX 78758, USA",Barnhill Drive,North Austin Civic Association,Austin,Travis County,78758,30.379712,-97.6967135
"Barnsdale Way, Austin, TX 78745, USA",Barnsdale Way,South Austin,Austin,Travis County,78745,30.1930518,-97.7928995
"Barnsley Dr, Austin, TX 78745, USA",Barnsley Drive,South Austin,Austin,Travis County,78745,30.2044702,-97.8278546
"Baron Ln, Cedar Park, TX 78613, USA",Baron Lane,North Buttercup Creek,Cedar Park,Williamson County,78613,30.5143639,-97.8327792
"Baronets Trail, Austin, TX 78753, USA",Baronets Trail,Copperfield,Austin,Travis County,78753,30.3834624,-97.6582139
"Barons Ct, Chimney Hill, TX 78754, USA",Barons Court,Chimney Hill,UnknownTown,Travis County,78754,30.3314829,-97.6481619
"Barr Ln, Texas 78754, USA",Barr Lane,UnknownHood,UnknownTown,Travis County,78754,30.3505976,-97.6432828
"Barranca Cir, Austin, TX 78731, USA",Barranca Circle,UnknownHood,Austin,Travis County,78731,30.3235809,-97.7699402
"Barrel Bend, Austin, TX 78748, USA",Barrel Bend,Southland Oaks,Austin,Travis County,78748,30.1528452,-97.856386
"Barrett Ln, Rob Roy On The Lake, TX 78733, USA",Barrett Lane,Rob Roy On The Lake,UnknownTown,Travis County,78733,30.3216398,-97.8506593
"Barrhall Dr, Round Rock, TX 78664, USA",Barrhall Drive,Greenhill,Round Rock,Williamson County,78664,30.5294564,-97.6824768
"Barricks Cove, Austin, TX 78727, USA",Barricks Cove,Northwood,Austin,Travis County,78727,30.4255737,-97.7125804
"Barrie Dr, Texas 78734, USA",Barrie Drive,UnknownHood,UnknownTown,Travis County,78734,30.3493713,-97.9551528
"Barrilla St, Texas 78613, USA",Barrilla Street,UnknownHood,UnknownTown,Williamson County,78613,30.4859876,-97.8451033
"Barrington Cove, Austin, TX 78753, USA",Barrington Cove,Windsor Hills,Austin,Travis County,78753,30.3598465,-97.6745811
"Barrington Dr, Austin, TX 78753, USA",Barrington Drive,Windsor Hills,Austin,Travis County,78753,30.360594,-97.6744088
"Barrington Way, Austin, TX 78759, USA",Barrington Way,UnknownHood,Austin,Travis County,78759,30.4296775,-97.773687
"Barrow Ave, Austin, TX 78751, USA",Barrow Avenue,Central Austin,Austin,Travis County,78751,30.3042216,-97.7251066
"Barrow Glen Loop, Austin, TX 78749, USA",Barrow Glen Loop,South Austin,Austin,Travis County,78749,30.2037421,-97.8561692
"Barryknoll St, Jollyville, TX 78729, USA",Barryknoll Street,Forest North Estates,Jollyville,Williamson County,78729,30.4561803,-97.7781732
"Barsana Ave, Texas 78737, USA",Barsana Avenue,UnknownHood,UnknownTown,Hays County,78737,30.1568486,-97.9577777
"Barsana Rd, Texas 78737, USA",Barsana Road,UnknownHood,UnknownTown,Hays County,78737,30.1563393,-97.9581965
"Barsham Ct, Twin Creeks, TX 78613, USA",Barsham Court,Twin Creeks,UnknownTown,Travis County,78613,30.4701578,-97.8493984
"Barstow Ave, Austin, TX 78749, USA",Barstow Avenue,UnknownHood,Austin,Travis County,78749,30.2118311,-97.885908
"Bart Hollow Dr, Austin, TX 78750, USA",Bart Hollow Drive,UnknownHood,Austin,Travis County,78750,30.4384478,-97.7981846
"Barteny Cove, Texas 78724, USA",Barteny Cove,UnknownHood,UnknownTown,Travis County,78724,30.256766,-97.5891123
"Bartholdi St, Austin, TX 78753, USA",Bartholdi Street,Harris Ridge,Austin,Travis County,78753,30.3974903,-97.6485573
"Bartlett Dr W, Texas 78610, USA",Bartlett Drive West,UnknownHood,UnknownTown,Hays County,78610,30.0665928,-97.9216334
"Bartlett St, Austin, TX 78704, USA",Bartlett Street,UnknownHood,Austin,Travis County,78704,30.2419209,-97.7530561
"Barton Blvd, Austin, TX 78704, USA",Barton Boulevard,Zilker,Austin,Travis County,78704,30.2621182,-97.7660984
"Barton Club Dr, Barton Creek, TX 78735, USA",Barton Club Drive,UnknownHood,Barton Creek,Travis County,78735,30.2893842,-97.855748
"Barton Creek Blvd, Austin, TX 78735, USA",Barton Creek Boulevard,UnknownHood,Austin,Travis County,78735,30.2895291,-97.865845
"Barton Hills Dr, Austin, TX 78704, USA",Barton Hills Drive,Barton Hills,Austin,Travis County,78704,30.2552555,-97.7820845
"Barton Pkwy, Austin, TX 78704, USA",Barton Parkway,Barton Hills,Austin,Travis County,78704,30.2541788,-97.7812053
"Barton Point Cir, Barton Creek West, TX 78733, USA",Barton Point Circle,Barton Creek West,UnknownTown,Travis County,78733,30.2951725,-97.8955399
"Barton Point Dr, Barton Creek West, TX 78733, USA",Barton Point Drive,Barton Creek West,UnknownTown,Travis County,78733,30.2957882,-97.8961835
"Barton Skyway, Austin, TX 78704, USA",Barton Skyway,UnknownHood,Austin,Travis County,78704,30.247328,-97.7850526
"Barton Springs Rd, Austin, TX 78746, USA",Barton Springs Road,UnknownHood,Austin,Travis County,78746,30.2660009,-97.7686093
"Barton View Dr, Austin, TX 78735, USA",Barton View Drive,South Austin,Austin,Travis County,78735,30.2351452,-97.8103759
"Barton Village Cir, Austin, TX 78704, USA",Barton Village Circle,Zilker,Austin,Travis County,78704,30.2458731,-97.7829447
"Barton Ranch Cir, Texas 78620, USA",Barton Ranch Circle,UnknownHood,UnknownTown,Hays County,78620,30.2433003,-98.0720599
"Bartoncliff Dr, Austin, TX 78704, USA",Bartoncliff Drive,Barton Hills,Austin,Travis County,78704,30.2609387,-97.7829376
"Bartons Bluff Ct, Austin, TX 78746, USA",Bartons Bluff Court,Barton Hills,Austin,Travis County,78746,30.2535924,-97.7971123
"Bartons Bluff Ln, Austin, TX 78746, USA",Bartons Bluff Lane,Barton Hills,Austin,Travis County,78746,30.2547373,-97.7954211
"Barton Crossing, Texas 78610, USA",Barton Crossing,UnknownHood,UnknownTown,Hays County,78610,30.0780913,-97.8492135
"Barwood Park, Austin, TX 78753, USA",Barwood Park,Georgian Acres,Austin,Travis County,78753,30.3485879,-97.6953898
"Basford Rd, Austin, TX 78722, USA",Basford Road,Cherrywood,Austin,Travis County,78722,30.2887214,-97.7098478
"Basil Cove, Austin, TX 78750, USA",Basil Cove,Canyon Ridge,Austin,Travis County,78750,30.3838531,-97.7999007
"Basil Dr, Buda, TX 78610, USA",Basil Drive,UnknownHood,Buda,Hays County,78610,30.0804311,-97.8319726
"Basil Dr, Austin, TX 78750, USA",Basil Drive,Canyon Ridge,Austin,Travis County,78750,30.3848194,-97.7998645
"Basin Ledge E, West Lake Hills, TX 78746, USA",Basin Ledge East,Stonehedge Estates,West Lake Hills,Travis County,78746,30.3053928,-97.7972566
"Basin Ledge, West Lake Hills, TX 78746, USA",Basin Ledge,Stonehedge Estates,West Lake Hills,Travis County,78746,30.3055519,-97.79855
"Bassington Ct, Pflugerville, TX 78660, USA",Bassington Court,Cambridge Estates,Pflugerville,Travis County,78660,30.4299811,-97.6176003
"Basswood Ln, Austin, TX 78723, USA",Basswood Lane,Pecan Springs Springdale,Austin,Travis County,78723,30.2974367,-97.6760077
"Bastian Cove, Austin, TX 78739, USA",Bastian Cove,The Hielscher,Austin,Travis County,78739,30.1876592,-97.9063126
"Bastrop St, Manor, TX 78653, USA",Bastrop Street,UnknownHood,Manor,Travis County,78653,30.335723,-97.5613171
"Batak Ln, Austin, TX 78749, USA",Batak Lane,Circle C Ranch,Austin,Travis County,78749,30.2018801,-97.8717377
"Batavia Dr, Pflugerville, TX 78660, USA",Batavia Drive,Windermere Phase D,Pflugerville,Travis County,78660,30.456835,-97.6485962
"Bates Cove, Pflugerville, TX 78660, USA",Bates Cove,Windermere Phase D,Pflugerville,Travis County,78660,30.4568508,-97.6503202
"Bath Way, Austin, TX 78753, USA",Bath Way,Copperfield,Austin,Travis County,78753,30.3959904,-97.6596955
"Baton Rouge Dr, Austin, TX 78727, USA",Baton Rouge Drive,Milwood,Austin,Travis County,78727,30.4368397,-97.7453694
"Battenburg Trail, Brookfield Estates, TX 78660, USA",Battenburg Trail,Brookfield Estates,UnknownTown,Travis County,78660,30.4217275,-97.6421419
"Battle Bend Blvd, Austin, TX 78745, USA",Battle Bend Boulevard,South Austin,Austin,Travis County,78745,30.203925,-97.765738
"Battle Bridge Dr, Austin, TX 78748, USA",Battle Bridge Drive,Southland Oaks,Austin,Travis County,78748,30.1522981,-97.851008
"Bauerle Ave, Austin, TX 78704, USA",Bauerle Avenue,Zilker,Austin,Travis County,78704,30.2518853,-97.7699057
"Bavaria Ln, Austin, TX 78749, USA",Bavaria Lane,Circle C Ranch,Austin,Travis County,78749,30.2024187,-97.8740331
"Baxter Cir, Scenic Brook Estates, TX 78736, USA",Baxter Circle,Scenic Brook Estates,UnknownTown,Travis County,78736,30.2293138,-97.9471338
"Baxter Dr, Austin, TX 78745, USA",Baxter Drive,South Austin,Austin,Travis County,78745,30.2136928,-97.8098813
"Baxter Ln, Texas 78736, USA",Baxter Lane,UnknownHood,UnknownTown,Travis County,78736,30.2293936,-97.9467286
"Baxter Springs Rd, Austin, TX 78745, USA",Baxter Springs Road,South Austin,Austin,Travis County,78745,30.190469,-97.8104492
"Bay Cir, Siesta Shores, TX 78669, USA",Bay Circle,Siesta Shores,UnknownTown,Travis County,78669,30.3862614,-98.0191129
"Bay Hill Cove, Lost Creek, TX 78746, USA",Bay Hill Cove,The Hills Of Lost Creek,Lost Creek,Travis County,78746,30.2785175,-97.8318203
"Bay Hill Dr, Lost Creek, TX 78746, USA",Bay Hill Drive,UnknownHood,Lost Creek,Travis County,78746,30.2808345,-97.8317834
"Bay Hill Ln, Round Rock, TX 78664, USA",Bay Hill Lane,Forest Creek,Round Rock,Williamson County,78664,30.5163518,-97.5969255
"Bay Laurel Trail, Austin, TX 78750, USA",Bay Laurel Trail,Bend At The Villages Of Spicewood,Austin,Travis County,78750,30.4240952,-97.7857352
"Bayberry Ct, Cedar Park, TX 78613, USA",Bayberry Court,North Buttercup Creek,Cedar Park,Williamson County,78613,30.503091,-97.8261823
"Bayberry Dr, Austin, TX 78759, USA",Bayberry Drive,Balcones Hills,Austin,Travis County,78759,30.3701257,-97.7542103
"Bayfield Dr, Austin, TX 78727, USA",Bayfield Drive,Scofield Farms,Austin,Travis County,78727,30.4195978,-97.6811159
"Baylor St, Austin, TX 78703, USA",Baylor Street,UnknownHood,Austin,Travis County,78703,30.2742796,-97.753773
"Bayou Bend, Austin, TX 78759, USA",Bayou Bend,UnknownHood,Austin,Travis County,78759,30.4266799,-97.7650913
"Bayridge Cove, Austin, TX 78759, USA",Bayridge Cove,Windridge,Austin,Travis County,78759,30.4146065,-97.7694973
"Bayridge Terrace, Austin, TX 78759, USA",Bayridge Terrace,Windridge,Austin,Travis County,78759,30.4152831,-97.7702511
"Bayside Dr, Austin, TX 78744, USA",Bayside Drive,Southeast Austin,Austin,Travis County,78744,30.2001259,-97.7411036
"Bayswater Garden, Jollyville, TX 78729, USA",Bayswater Garden,Forest North Estates,Jollyville,Williamson County,78729,30.4703758,-97.7780451
"Bayton Loop, Austin, TX 78745, USA",Bayton Loop,Garrison Park,Austin,Travis County,78745,30.22064,-97.8080623
"Baywood Dr, Austin, TX 78759, USA",Baywood Drive,UnknownHood,Austin,Travis County,78759,30.3668627,-97.7485605
"Beach Rd, Rocky Point, TX 78641, USA",Beach Road,Rocky Point,UnknownTown,Travis County,78641,30.4928365,-97.9135472
"Beach Rd, North Shore Colony, TX 78645, USA",Beach Road,North Shore Colony,UnknownTown,Travis County,78645,30.4170051,-97.96099
"Beacham Ct, Austin, TX 78739, USA",Beacham Court,Circle C Ranch,Austin,Travis County,78739,30.1870496,-97.8873513
"Beachmont Ct, Austin, TX 78739, USA",Beachmont Court,Circle C Ranch,Austin,Travis County,78739,30.1862372,-97.8845426
"Beachmont Ln, Austin, TX 78739, USA",Beachmont Lane,Circle C Ranch,Austin,Travis County,78739,30.1858514,-97.8844229
"Beacon Dr, Hudson Bend, TX 78734, USA",Beacon Drive,UnknownHood,Hudson Bend,Travis County,78734,30.4175123,-97.9225733
"Beacon Hill Rd, Texas 78610, USA",Beacon Hill Road,UnknownHood,UnknownTown,Hays County,78610,30.0943781,-97.890229
"Beaconcrest Dr, Austin, TX 78748, USA",Beaconcrest Drive,South Austin,Austin,Travis County,78748,30.1791912,-97.7906056
"Beaconsdale Cir, Austin, TX 78727, USA",Beaconsdale Circle,Northwood,Austin,Travis County,78727,30.4261009,-97.7133265
"Beaconsdale Dr, Austin, TX 78727, USA",Beaconsdale Drive,Northwood,Austin,Travis County,78727,30.4258708,-97.7130563
"Beanna St, Austin, TX 78705, USA",Beanna Street,UnknownHood,Austin,Travis County,78705,30.2903987,-97.7296223
"Bear Canyon Dr, Arroyo Doble, TX 78652, USA",Bear Canyon Drive,Arroyo Doble,UnknownTown,Travis County,78652,30.1257689,-97.8274095
"Bear Creek Dr, Bear Creek, TX 78737, USA",Bear Creek Drive,UnknownHood,Bear Creek,Hays County,78737,30.1793471,-97.9375532
"Bear Creek Pass, Texas 78737, USA",Bear Creek Pass,UnknownHood,UnknownTown,Hays County,78737,30.1594117,-97.9450199
"Bear Hollow Cove, Shady Hollow Estates, TX 78739, USA",Bear Hollow Cove,Shady Hollow Estates,UnknownTown,Travis County,78739,30.1532783,-97.865719
"Bear Paw Trail, Austin, TX 78617, USA",Bear Paw Trail,Carson Creek,Austin,Travis County,78617,30.2228183,-97.6666429
"Bear Rd, Lago Vista, TX 78645, USA",Bear Road,Highland Lake Estates,Lago Vista,Travis County,78645,30.4366717,-97.9958877
"Beard Ave, Austin, TX 78748, USA",Beard Avenue,UnknownHood,Austin,Travis County,78748,30.1715318,-97.8361083
"Bearden Cove, Point Venture, TX 78645, USA",Bearden Cove,UnknownHood,Point Venture,Travis County,78645,30.3800627,-97.9936673
"Beardsley Cove, Lost Creek, TX 78746, USA",Beardsley Cove,Peyton Brook At Rob Roy,Lost Creek,Travis County,78746,30.3093337,-97.8514486
"Beardsley Ln, Lost Creek, TX 78746, USA",Beardsley Lane,Peyton Brook At Rob Roy,Lost Creek,Travis County,78746,30.3078826,-97.8510421
